stop_id,stop_code,stop_name,stop_desc,stop_lat,stop_lon,zone_id,stop_url,location_type,parent_station
1903,,Palácio da Justiça,,40.213785,-8.431862,,,0,
1904,,Câmara Municipal,,40.211373,-8.428352,,,0,
1905,,Mercado Municipal,,40.211391,-8.424965,,,0,
1906,,Praça da República,,40.20954,-8.420863,,,0,
1907,,Lourenço Almeida Azevedo,,40.210902,-8.415559,,,0,
1908,,Augusto Rocha,,40.212159,-8.413693,,,0,
1909,,B.C.G.,,40.214538,-8.411444,,,0,
1910,,Instituto de Oncologia,,40.217258,-8.409754,,,0,
1911,,Hospitais da Universidade Este,,40.219966,-8.409496,,,0,
1912,,Afrânio Peixoto 2,,40.219349,-8.407257,,,0,
1913,,Nó dos Olivais,,40.217535,-8.405397,,,0,
1914,,Igreja dos Olivais,,40.217646,-8.403547,,,0,
1915,,São Sebastião,,40.217023,-8.3996,,,0,
1916,,Brigadeiro Correia Cardoso,,40.216146,-8.3973,,,0,
1917,,Tovim,,40.214419,-8.395758,,,0,
1918,,Elísio de Moura 2,,40.212752,-8.396809,,,0,
1919,,Elísio de Moura 3,,40.208024,-8.400101,,,0,
1920,,Escola Eugénio de Castro,,40.207727,-8.402194,,,0,
1921,,Carolina Michaelis,,40.205494,-8.404335,,,0,
1922,,Escola Superior de Educação,,40.205462,-8.406089,,,0,
1923,,Infanta Dona Maria,,40.206299,-8.407461,,,0,
1924,,Humberto Delgado 1,,40.205093,-8.410126,,,0,
1925,,Humberto Delgado 2,,40.204029,-8.413496,,,0,
1926,,São José,,40.202241,-8.410355,,,0,
1927,,Rua do Brasil 1,,40.202033,-8.412062,,,0,
1928,,Rua do Brasil 2,,40.201985,-8.414513,,,0,
1929,,Rua do Brasil 3,,40.201306,-8.417139,,,0,
1930,,Rua do Brasil 4,,40.200136,-8.420089,,,0,
1931,,Ladeira do Batista,,40.200755,-8.422075,,,0,
1932,,Parque Verde do Mondego,,40.203901,-8.424738,,,0,
1933,,Emídio Navarro,,40.204789,-8.425976,,,0,
1934,,Portagem,,40.20765,-8.430205,,,0,
1935,,Loja do Cidadão,,40.211026,-8.432042,,,0,
2334,Feira dos 7 e 23,Feira dos 7 e 23,Marginal do Campo - Feira dos 7 e 23,40.2195,-8.4593,,,0,
2623,Se Velha,Se Velha,Largo da Se Velha,40.2089,-8.4274,,,0,
4753,Praca Dom Dinis,Pr. D. Dinis,Praca D. Dinis - Universidade de Coimbra,40.2082,-8.4228,,,0,
8827,Sao Romao,Sao Romao,,40.2233,-8.4034,,,0,
9130,ARCA ,ARCA,Estr. de ligacao Ingote - Lordemao (ARCA)-Sent. Lordemao,40.2355,-8.417,,,0,
9131,ARCA ,ARCA,Estr. de ligacao Ingote - Lordemao (ARCA) -Sent.Ingote,40.2355,-8.4172,,,0,
9134,Bairro da Liberdade (Cruzamento),B.Liberdade(X),Est. de ligacao Ingote - Lordemao (Bairro da Liberdade - Cruz.) Sent. Ingote,40.233,-8.4269,,,0,
9135,Bairro da Liberdade (Cruzamento),B.Liberdade(X),Est. de ligacao Ingote - Lordemao (Bairro da Liberdade - Cruz.) Sent. ARCA,40.2331,-8.4266,,,0,
9136,Quinta do Melo (Cruzamento),Qta do Melo,Est. de ligacao Ingote - Lordemao (Quinta do Melo - Cruz.) Sent. ARCA,40.23414,-8.421235,,,0,
9137,Quinta do Melo (Cruzamento),Qta do Melo,Est. de ligacao Ingote - Lordemao (Quinta do Melo - Cruz.) Sent. Ingote,40.234153,-8.421653,,,0,
9257,Instituto de Lordemao,Inst. de Lordemao,Estr. de ligacao Ingote - Lordemao (Inst. de Lordemao),40.2356,-8.414,,,0,
10131,Estacao Coimbra B,Estacao Velha,Rua do Padrao 1 - Est. Velha,40.2225,-8.4397,,,0,
10132,Quinta do Murtal,Q. do Murtal,Rua Henrique Barros - Quinta do Murtal,40.2547,-8.4279,,,0,
10133,Rua Santa Isabel,Rua St. Isabel,Rua St. Isabel - Sent. Carvalhais,40.1683,-8.4355,,,0,
10134,Rua da Chainca,Rua da Chainca,Rua da Chainca - Sent. M. dos Pereiros,40.1672,-8.4344,,,0,
10135,Rua Nova do Barreiro,Barreiro,Rua Nova do Barreiro - Taveiro - Sent. Escola,40.2,-8.5003,,,0,
10136,Rua Nova do Barreiro,Barreiro,Rua Nova do Barreiro - Taveiro - Sent. Coimbra,40.1999,-8.5007,,,0,
10137,Santa Eufemia 1,St.Eufemia 1,Rua de Sta Eufemia (Paragem 1) - Cimo da Ribeira - Sent. Escola,40.1995,-8.4966,,,0,
10138,Santa Eufemia 1,St.Eufemia 1,Rua de Sta Eufemia (Paragem 1) - Cimo da Ribeira - Sent. Coimbra,40.1999,-8.4966,,,0,
10139,Santa Eufemia 2,St.Eufemia 2,Rua de Sta Eufemia (Paragem 2) - Cimo da Ribeira - Sent. Escola,40.1979,-8.4961,,,0,
10140,Santa Eufemia 2,St.Eufemia 2,Rua de Sta Eufemia (Paragem 2) - Cimo da Ribeira - Sent. Coimbra,40.1982,-8.4962,,,0,
10141,Santa Eufemia 3,St.Eufemia 3,Rua de Sta Eufemia (Paragem 3) - Cimo da Ribeira - Sent. Escola,40.1954,-8.4961,,,0,
10142,Santa Eufemia 3,St.Eufemia 3,Rua de Sta Eufemia (Paragem 3) - Cimo da Ribeira - Sent. Coimbra,40.1962,-8.496,,,0,
10143,Taveiro (Escola),Taveiro (Escola),Taveiro (Esc. B. 2- 3 Taveiro),40.1942,-8.5005,,,0,
10144,Ameal (Sul),Ameal (S),E. N. 341 - Ameal (Sul) -Sent. Arzila,40.1874,-8.5472,,,0,
10145,Arzila (Centro),Arzila (C),E. N. 341 - Arzila (Centro) - Sent. Ameal,40.1838,-8.5508,,,0,
10146,Ameal (Sul),Ameal (S),E. N. 341 - Ameal (Sul) -Sent. Taveiro,40.1875,-8.547,,,0,
10147,Rua de Condeixa,R.de Condeixa,Rua de Condeixa - Arzila - Sent. Anobra,40.1816,-8.5497,,,0,
10148,Rua de Condeixa,R.de Condeixa,Rua de Condeixa - Arzila - Sent. Coimbra,40.1821,-8.5498,,,0,
10149,Arzila (Norte),Arzila (N),E. N. 341 - Arzila (Norte) - Sent. Centro,40.1853,-8.5489,,,0,
10150,Arzila (Norte),Arzila (N),E. N. 341 - Arzila (Norte) - Sent. Ameal,40.1856,-8.5486,,,0,
10151,Arzila (Centro),Arzila (C),E. N. 341 - Arzila (Centro) - Sent. Cruz. Lameira,40.1838,-8.5509,,,0,
10152,Cruzamento Rua da Lameira,R.da Lameira (X),E. N. 605 - Cruzamento com Rua da Lameira,40.179,-8.5448,,,0,
10153,Ameal  (Norte),Ameal  (N),E. N. 341 - Ameal (Norte) - Sent. Arzila,40.1918,-8.5378,,,0,
10154,Ameal (Centro),Ameal (C),R. Principal - Ameal (Centro) - Sent. Taveiro,40.1906,-8.5431,,,0,
10155,Ameal (Centro),Ameal (C),R. Principal - Ameal (Centro) - Sent. Arzila,40.1906,-8.5432,,,0,
10156,Ameal  (Norte),Ameal (N),E. N. 341 - Ameal (Norte) - Sent. Taveiro,40.1918,-8.5375,,,0,
10157,Ameal,Ameal,E. N. 341 - Ameal - Sent. Arzila,40.1892,-8.545,,,0,
10158,Ameal,Ameal,E. N. 341 - Ameal - Sent. Taveiro,40.1894,-8.5448,,,0,
10159,Vila Pouca ,Vila Pouca (X),E. M. 605 - Vila Pouca do Campo - Sent. Arzila,40.1952,-8.5276,,,0,
10160,Vila Pouca ,Vila Pouca ,Vila Pouca do Campo - Junto a Escola,40.1906,-8.5221,,,0,
10161,Vila Pouca ,Vila Pouca (X),E. M.  605 - Vila Pouca do Campo - Sent. Taveiro,40.1953,-8.5271,,,0,
10162,Arneiros,Arneiros,E. M. 605 - Arneiros - Sent. Taveiro,40.1963,-8.5232,,,0,
10163,Arneiros,Arneiros,E. M. 605 - Arneiros - Sent. Vila Pouca,40.1961,-8.5235,,,0,
10164,Rua Combatentes 1,R.Combatentes 1,Rua Combatentes (1)- Vila Pouca - Sent. Taveiro,40.1935,-8.5277,,,0,
10165,Rua Combatentes 1,R.Combatentes 1,Rua Combatentes (1)- Vila Pouca - Sent. Ameal,40.1931,-8.5275,,,0,
10166,Vila Pouca (Centro),Vila Pouca (C),Vila Pouca - Centro - Sent. Taveiro,40.1906,-8.5256,,,0,
10167,Vila Pouca (Centro),Vila Pouca (C),Vila Pouca - Centro - Sent. Ameal,40.1906,-8.5259,,,0,
10168,Vila Pouca (Este),Vila Pouca (Este),Vila Pouca - Estrada p/ Reveles - Sent. Vila Pouca,40.19,-8.5187,,,0,
10169,Vila Pouca (Este),Vila Pouca (Este),Vila Pouca - Estrada p/ Reveles - Sent. Coimbra,40.1901,-8.5191,,,0,
10170,Reveles,Reveles (C),C. M. 116 - Reveles - Sent. Taveiro,40.1902,-8.5165,,,0,
10171,Reveles,Reveles (C),C. M. 116 - Reveles - Sent. Vila Pouca,40.1902,-8.5166,,,0,
10172,Reveles de Baixo,Reveles Baixo,E. M. 605  - Reveles de Baixo - Sent. Taveiro,40.1991,-8.5172,,,0,
10173,Reveles de Baixo,Reveles Baixo,E. M. 605 - Reveles de Baixo - Sent. Arzila,40.1991,-8.5175,,,0,
10174,Mercado Abastecedor,Mercado,E. N. 1-7 (Mercado Abastecedor) - Sent.Taveiro,40.1896,-8.5103,,,0,
10175,Reveles (Sul),Reveles (X),C. M. 116 Reveles (cruzamento) - Sent. Taveiro,40.1864,-8.5114,,,0,
10176,Reveles (Sul),Reveles (X),C. M. 116 Reveles (cruzamento) - Sent. Vila Pouca,40.1865,-8.5114,,,0,
10177,Mercado Abastecedor,Mercado,E. N. 1-7 (Mercado Abastecedor) - Sent.Vila Pouca,40.1894,-8.5106,,,0,
10178,Cruzamento de Alcarraques,Cz. Alcarraques,E. N. 111(Cruz. Alcarraques)  - Sent. Coimbra ,40.252343,-8.462587,,,0,
10179,Barreiro,R. de Coimbra (Barreiro),Rua de Coimbra (Barreiro) - Sent. Vil Matos,40.281,-8.4856,,,0,
10180,Barreiro,R. de Coimbra (Barreiro),Rua de Coimbra (Barreiro) - Sent. Coimbra,40.2809,-8.4854,,,0,
10181,Taveiro (Apeadeiro),Taveiro (Apeadeiro),E. N. 110-2 Taveiro (Apeadeiro) - Sent. Arzila,40.2037,-8.5,,,0,
10182,Taveiro (Centro),Taveiro (C),E.N. 110-2 Taveiro (Centro) - Junto a Capela - Sent. Coimbra,40.2024,-8.5025,,,0,
10183,Taveiro (Centro),Taveiro (C),E.N. 1-7 Taveiro (Centro) - Junto a Capela - Sent. Vila Pouca,40.2023,-8.5026,,,0,
10184,Taveiro (Centro),Taveiro (C),E. N. 1-7 Taveiro (Centro) - Junto a Capela,40.2026,-8.5024,,,0,
10185,Taveiro (Centro),Taveiro (C),E.N. 110-2 Taveiro (Centro) - Junto a Capela - Sent. Arzila,40.2024,-8.5025,,,0,
10186,Taveiro (Oeste),Taveiro(W),E.N. 110-2 Taveiro(W) - Sent. Arzila,40.2016,-8.5069,,,0,
10187,Taveiro (Oeste),Taveiro(W),E.N. 110-2 Taveiro(W) - Sent. Coimbra,40.2017,-8.5066,,,0,
10188,Monsenhor Nunes Pereira,Mons. Nunes Pereira,Monsenhor Augusto Nunes Pereira- R. - Sent. Bandeiras,40.2012,-8.4042,,,0,
10189,Taveiro (Passagem de Nivel) ,Taveiro (P/N),Taveiro (Passagem de Nivel) - Sent. Coimbra ,40.1998,-8.5078,,,0,
10190,Taveiro (Sul),Taveiro (S),E. N. 1-7 Taveiro (Sul) - Sent. Vila Pouca,40.1989,-8.5015,,,0,
10191,Taveiro (Sul),Taveiro (S),E. N. 1-7 Taveiro (Sul) - Sent. Taveiro,40.1991,-8.5015,,,0,
10192,Taveiro (Apeadeiro),Taveiro (Apeadeiro),E. N. 110 - 2 Taveiro (Apeadeiro) - Sent. Coimbra,40.2038,-8.4998,,,0,
10193,Taveiro (Cemiterio),Taveiro (Cemiterio),Taveiro (Cemiterio) - Sent. Arzila,40.1997,-8.5074,,,0,
10194,Taveiro (Parque Mondego),P. Mondego,Taveiro - Parque Mondego - Sent. Vila Pouca,40.1921,-8.5077,,,0,
10195,Taveiro (Parque Mondego),P. Mondego,Taveiro - Parque Mondego - Sent. Coimbra,40.1924,-8.5073,,,0,
10196,Taveiro (Escola),Taveiro (Escola),Taveiro (Esc. B. 2- 3 Taveiro),40.1941,-8.5005,,,0,
10197,Taveiro (Rotunda dos Telhoes),Taveiro (Rot. Telhoes),E. N. 1-7 Taveiro - Rotunda dos Telhoes - Sent. Coimbra,40.194,-8.5056,,,0,
10198,Taveiro (Cruzamento para a Escola),Taveiro (X-Escola),Taveiro (cruzamento p/ Escola) - Sent. Taveiro,40.1971,-8.5035,,,0,
10199,Taveiro (Casa da Crianca),Taveiro (C.Crianca),Taveiro - (Casa da Crianca) - Sent. Parq. Mondego,40.1964,-8.5046,,,0,
10200,Taveiro (Zona Industrial),Taveiro (Z.Ind.),Taveiro - Zona Industrial (Rotunda) - Sent. Coimbra,40.1988,-8.508,,,0,
10201,Taveiro (Parque Mondego),P. Mondego,Taveiro - Parque Mondego (Terminus L. 12),40.1915,-8.509,,,0,
10202,Taveiro (Rotunda dos Telhoes),Taveiro (Rot. Telhoes),E. N. 1-7 Taveiro - Rotunda dos Telhoes - Sent. Parq. Mondego,40.1944,-8.5059,,,0,
10203,Vil de Matos (Centro),Vil de Matos (Centro),Vil de Matos - (Centro) - Sent. Pisao,40.1944,-8.5059,,,0,
10204,Vil de Matos (Centro),Vil de Matos (Centro),Vil de Matos - (Centro) - Sent. Ademia,40.1944,-8.5059,,,0,
10205,Vil de Matos (Norte),Vil de Matos (N),Vil de Matos - (Norte) - Terminus 2T,40.2868,-8.4895,,,0,
10206,Vil de Matos,Vil de Matos,Vil de Matos - Sent. Pisao,40.2853,-8.4876,,,0,
10207,Vil de Matos,Vil de Matos,Vil de Matos - Sent Coimbra,40.285,-8.4875,,,0,
10208,Mourelos,Mourelos,Mourelos - sent. Vil Matos,40.2758,-8.4869,,,0,
10209,Casais (Cemiterio),Casais,Casais (Cemiterio da Ribeira) - Sent. Taveiro,40.2033,-8.4856,,,0,
10210,Ribeira de Frades (Escola),Rib. Frades (Escola),R. Pedro Rodrigues Santos - Rib.de Frades (Escola) -  Sent. Coimbra,40.2051,-8.491,,,0,
10211,Ribeira de Frades (Escola),Rib. Frades (Escola),R. Pedro Rodrigues Santos - Rib.de Frades (Escola) -  Sent. Taveiro,40.2052,-8.4914,,,0,
10212,Ribeira de Frades (Centro),Rib. de Frades (C),E. N. 110-2 - Ribeira de Frades (Centro) - Sent. Coimbra,40.2057,-8.4949,,,0,
10213,Ribeira de Frades (Centro),Rib. de Frades (C),E. N. 110-2 - Ribeira de Frades (Centro) - Sent. Taveiro,40.2056,-8.4953,,,0,
10214,Taveiro (Centro de Saude),Taveiro (C. Saude),E. N. 110-2 Taveiro (Centro de Saude) - Sent. Coimbra,40.2052,-8.4976,,,0,
10215,Taveiro (Centro de Saude),Taveiro (C. Saude),E. N. 110-2 Taveiro (Centro de Saude) - Sent. Arzila,40.205,-8.4979,,,0,
10216,Alto da Ribeira,Alto da Ribeira,E. N. 341 - Alto da Ribeira - Sent. Arzila,40.2017,-8.4973,,,0,
10217,Alto da Ribeira,Alto da Ribeira,E. N. 341 - Alto da Ribeira - Sent.Coimbra,40.2016,-8.4967,,,0,
10218,Ribeira de Frades,Rib. de Frades,E. N. 341 - Ribeira de Frades - Sent. Arzila ,40.2021,-8.4939,,,0,
10219,Ribeira de Frades,Rib. de Frades,E. N. 341 - Ribeira de Frades - Sent. Coimbra ,40.2019,-8.4932,,,0,
10220,Casais do Campo,Casais do Campo  (X),E. N. 110-2 (Cruz.dos Casais) - Sent. Taveiro,40.2046,-8.4865,,,0,
10221,Vale Velho ,V. Velho,E. M. 539 - Cruz. do Vale Velho - Sent. Lordemao,40.2409,-8.405,,,0,
10222,Outeiro da Ribeira,O. Ribeira,E. N. 110-2 - Outeiro da Ribeira - Sent. Casais,40.1963,-8.4865,,,0,
10223,Outeiro da Ribeira,O. Ribeira,E. N. 110-2 - Outeiro da Ribeira - Sent. Valongo,40.1969,-8.4867,,,0,
10224,Moinho do Calhau (Norte),M. Calhau (Norte),E. N. 110-2 - Moinho do Calhau (Norte) - Sent. Casais,40.1874,-8.4876,,,0,
10225,Moinho do Calhau (Norte),M. Calhau (Norte),E. N. 110-2 - Moinho do Calhau (Norte) - Sent. Valongo,40.188,-8.4877,,,0,
10226,Moinho do Calhau,Moinho do Calhau,E. N. 110-2 - Moinho do Calhau - Sent. Casais,40.1837,-8.487,,,0,
10227,Entre Tremocais,Entre Tremocais,E. N. 110-2 - Entre Tremocais (Valongo) - Sent. Casais,40.1788,-8.4872,,,0,
10228,Moinho do Calhau,Moinho do Calhau,E. N. 110-2 - Moinho do Calhau - Sent. Valongo,40.1837,-8.4871,,,0,
10229,Entre Tremocais,Entre Tremocais,E. N. 110-2 - Entre Tremocais (Valongo) - Sent. Valongo,40.1789,-8.4873,,,0,
10230,Vil de Matos (Escola),Vil de Matos (Sul),Vil de Matos - Escola - (Sul) - Sent. Pisao,40.2795,-8.4837,,,0,
10231,Vil de Matos (Escola),Vil de Matos (Sul),Vil de Matos - Escola - (Sul) - Sent. Ademia,40.2798,-8.4839,,,0,
10232,Rios Frios (Eira Velha),Eira Velha,Rios Frios - Eira Velha - Sent. Vil de Matos,40.2751,-8.4752,,,0,
10233,Rios Frios (Eira Velha),Eira Velha,Rios Frios - Eira Velha - Sent. Ademia,40.2751,-8.4751,,,0,
10234,Vendas de Santana (Viaduto),V. Santana (Sul),Vendas de Santana - Viaduto - Sent. Vil de Matos,40.2769,-8.4786,,,0,
10235,Vendas de Santana (Viaduto),V. Santana (Sul),Vendas de Santana - Viaduto - Sent. Ademia,40.277,-8.4789,,,0,
10236,Vendas de Santana,V. Santana,Vendas de Santana - Cruzamento - Sent. Vil de Matos,40.2774,-8.4816,,,0,
10237,Vendas de Santana,V. Santana,Vendas de Santana - Cruzamento - Sent. Ademia,40.2773,-8.4822,,,0,
10238,Vendas de Santana,V. Santana,Vendas de Santana - Cruzamento - Sent. Mourelos,40.2772,-8.4823,,,0,
10239,Corujeira,Corujeira,E. N. 110-2 (Corujeira) - Sent. Coimbra,40.2077,-8.476,,,0,
10240,Corujeira,Corujeira,E. N. 110-2 (Corujeira) - Sent. Taveiro,40.2076,-8.4765,,,0,
10241,Casais (Escola),Casais (Escola),E. N. 110-2 - Casais (Esc. Primaria) - Sent. Taveiro,40.2056,-8.4823,,,0,
10242,Casais (Centro),Casais (C),E. N. 110-2 - Casais (Cruz. Casas Novas ) - Sent. Taveiro,40.2064,-8.4807,,,0,
10243,Casais (Cemiterio),Casais,Casais (Cemiterio da Ribeira) - Sent. Coimbra,40.2038,-8.4856,,,0,
10244,Casais (Apeadeiro),Casais (Apeadeiro),E. N. 110-2 - Casais (Apeadeiro) - Sent. Coimbra,40.2046,-8.4847,,,0,
10245,Casais (Escola),Casais Escola,E. N. 110-2 - (Esc. Primaria) - Sent. Coimbra,40.2053,-8.4827,,,0,
10246,Casais (Centro),Casais (C),E. N. 110-2 - Casais (Cruz. Casas Novas ) - Sent. Coimbra,40.2066,-8.4797,,,0,
10247,Guarda Inglesa,G. Inglesa,Av. Guarda Inglesa (Guarda Inglesa) - Sent. Coimbra,40.2104,-8.4399,,,0,
10248,Outeiro dos Casais (Sul),O. Casais (Sul),E. N. 110-2 - Outeiro dos Casais (Sul)  - Sent. Casais,40.1994,-8.4862,,,0,
10249,Outeiro dos Casais (Sul),O. Casais (Sul),E. N. 110-2 - Outeiro dos Casais (Sul) - Sent. Valongo,40.1992,-8.4862,,,0,
10250,Casas Novas (Viaduto),C. Novas (Viaduto),C. M. 1075 - Debaixo do Viaduto Via Rapida - Dir. Coalhadas,40.2034,-8.4785,,,0,
10251,Rua 25 de Abril,R.25 Abril,Rua 25 de Abril - Casais - Sent. Coalhadas,40.2032,-8.4821,,,0,
10252,Casas Novas 1,Casas Novas 1,C. M. 1075 - Casa Novas - Dir. Coalhadas,40.2019,-8.478,,,0,
10253,Escola Silva Gaio,Esc. Silva Gaio,Guarda Inglesa- Av. - Escola 2-3 Silva Gaio - Sent. Coimbra,40.2075,-8.4379,,,0,
10254,Outeiro dos Casais (Centro),Out. Casais (C),Outeiro dos Casais (Centro) - Sent. Coimbra,40.2003,-8.4838,,,0,
10255,Casas Novas,Casas Novas,C. M. 1075 - Casa Novas (Cruzamento p/ Estremao) - Sent. Coalhadas,40.2001,-8.4773,,,0,
10256,Urbanizacao de Sao Bento,Urb. S. Bento,Urbanizacao de S. Bento - Sent. Coimbra,40.1994,-8.4847,,,0,
10257,Estremao (Centro),Estremao,Estremao (Centro),40.2001,-8.4787,,,0,
10258,Outeiro dos Casais (Viaduto),Out. Casais (Viaduto),E. N. 110-2 - Outeiro dos Casais (Viaduto) - Sent. Valongo,40.2007,-8.4852,,,0,
10259,Rua das Cerejeiras,R.Cerejeiras,Rua das Cerejeiras - Casais - Sent. Coalhadas,40.2037,-8.4837,,,0,
10260,Outeiro dos Casais (Viaduto),Out. Casais (Viaduto),E. N. 110-2 - Outeiro dos Casais (Viaduto) - Sent. Casais,40.2014,-8.4853,,,0,
10261,Coalhadas ,Coalhadas,C. M. 1075 - Coalhadas (Cruz. p/ Casal da Bemposta) -Sent. Bemposta,40.1984,-8.4767,,,0,
10262,Rua Casal da Bemposta,R.Casal Bemposta(Font.),Rua Casal da Bemposta (Fontenario),40.1975,-8.4785,,,0,
10263,Casal da Bemposta,Casal Bemposta,Rua Casal da Bemposta (Casal da Bemposta),40.196,-8.481,,,0,
10264,Rua Casal dos Ratos,R.Casal Ratos,Rua Casal dos Ratos,40.1973,-8.4824,,,0,
10265,Casal dos Ratos,Casal Ratos,Rua Casal dos Ratos(Casal dos Ratos),40.1988,-8.4827,,,0,
10266,Valongo (Centro),Valongo (C),Valongo (Centro) Sent. - Esp. Santos das Touregas,40.1742,-8.482,,,0,
10267,Valongo,Valongo (X),Rua Dr. Mendes Silva - Valongo (Cruzamento com E. N. 110-2),40.1759,-8.484,,,0,
10268,Valongo (Norte),Valongo (Norte),E. N. 110-2 - Valongo (Norte),40.1763,-8.4853,,,0,
10269,Mendes Silva (Valongo),Mendes Silva,Rua Dr. Mendes Silva - Sent. Valongo,40.1767,-8.4785,,,0,
10270,Mendes Silva (Valongo),Mendes Silva,Rua Dr. Mendes Silva - Sent. Esp. Santo,40.1764,-8.479,,,0,
10271,Rios Frios (Cartacho),Cartacho,Rios Frios - Cartacho - Sent. Vil de Matos,40.2717,-8.4673,,,0,
10272,Rios Frios (Cartacho),Cartacho,Rios Frios - Cartacho - Sent. Ademia,40.272,-8.4687,,,0,
10273,Rios Frios (Almuinhas),Rios Frios,Rios Frios - Almuinhas - Sent. Vil de Matos,40.2729,-8.4703,,,0,
10274,Rios Frios (Almuinhas),Rios Frios,Rios Frios - Almuinhas - Sent. Ademia,40.2734,-8.4716,,,0,
10275,Alcarraques (Norte),Alcarraques (Norte),E. M. 618 - Alcarraques (Norte) - Sent. Rios Frios,40.2651,-8.4623,,,0,
10276,Alcarraques (Norte),Alcarraques (Norte),E. M. 618 - Alcarraques (Norte) - Sent. Ademia,40.2653,-8.4627,,,0,
10277,Alcarraques (Forno),Alcarraques (X),E. M. 618 - Alcarraques (Forno) - Sent. Ademia,40.254,-8.4625,,,0,
10278,Alcarraques (Forno),Alcarraques (X),E. M. 618 - Alcarraques (Forno) - Sent. Alcarraques,40.2543,-8.4621,,,0,
10279,Chafariz (Desvio Norte),Chafariz (Desvio Norte),E. N. 341 (Desvio de Chafariz)- Sent. Taveiro,40.2109,-8.4652,,,0,
10280,Parreiras (Centro),Parreiras (C),E. N. 110-2 - Parreiras (Centro) - Sent. Taveiro,40.2126,-8.4644,,,0,
10281,Parreiras (Centro),Parreiras (C),E. N. 110-2 - Parreiras (Centro) - Sent. Coimbra,40.2129,-8.4629,,,0,
10282,Parreiras,Parreiras,E. N. 110-2 - Parreiras - Sent. Taveiro,40.2117,-8.4672,,,0,
10283,Parreiras,Parreiras,E. N. 110-2 - Parreiras - Sent. Coimbra,40.2119,-8.4665,,,0,
10284,Espadaneira,Espadaneira,E. N. 110-2 - Espadaneira - Sent. Taveiro,40.2104,-8.4701,,,0,
10285,Espadaneira,Espadaneira,E. N. 110-2 - Espadaneira - Sent. Coimbra,40.2103,-8.4704,,,0,
10286,Pe de Cao,Pe de Cao,E. N. 110-2- Pe de Cao  - Sent. Taveiro,40.2097,-8.4718,,,0,
10287,Pe de Cao,Pe de Cao,E. N. 110-2- Pe de Cao  - Sent. Coimbra,40.2091,-8.472,,,0,
10288,Chafariz,Chafariz,Rua 1ode Maio (Chafariz) - Sent. Fala,40.2086,-8.4656,,,0,
10289,Chafariz,Chafariz,Rua 1o de Maio (Chafariz) - Sent. Coimbra,40.2088,-8.4655,,,0,
10290,Cruzes,Cruzes,Rua 1o de Maio (Cruzes)- Sent. Fala,40.2103,-8.4624,,,0,
10291,Cruzes,Cruzes,Rua 1o de Maio (Cruzes) -Sent. Coimbra,40.2103,-8.4626,,,0,
10292,Chafariz (Viaduto),Chafariz (Viaduto),Chafariz (Viaduto) - Fala - Sent. Bencanta,40.2111,-8.4627,,,0,
10293,Chafariz (Desvio Sul),Chafariz (Desvio Sul),E. N. 341 (Desvio de Chafariz)- Sent. Coimbra,40.2122,-8.4618,,,0,
10294,Rua da Escola Nova (Sul),R. Esc. Nova (S),Rua da Escola Nova (Sul) - Fala - Sent. Bencanta,40.2014,-8.466,,,0,
10295,Fala (Cruzamento),Fala (X),E. N. 341 - Cruz. Fala (Pitrolino) - Dir. Bencanta,40.2064,-8.4737,,,0,
10296,Fala (Cruzamento),Fala (X),E. N. 341 - Cruz. Fala (Pitrolino) - Dir. Taveiro,40.206,-8.4749,,,0,
10297,Rua 1o Maio ,R.1o Maio ,Rua 1o de Maio - Fala - Sent. Covoes,40.2063,-8.4674,,,0,
10298,Rua 1o Maio ,R.1o Maio ,Rua 1o de Maio - Fala - Sent. Coimbra,40.2066,-8.4671,,,0,
10299,Fala (Escola),Fala (Escola),Rua 1o de Maio - Fala (Cruz. c/ R. Esc. Nova)-Sent. Covoes,40.2046,-8.4686,,,0,
10300,Fala (Escola),Fala (Escola),Rua 1o de Maio - Fala (Cruz. c/ R. Esc. Nova)-Sent. Bencanta,40.2045,-8.4683,,,0,
10301,Fala (Centro),Fala (C),Rua 1o de Maio - Fala (Centro) - Sent. Covoes,40.203,-8.4695,,,0,
10302,Fala,Fala ,Rua 1o de Maio - Fala - Sent. Covoes,40.2015,-8.4682,,,0,
10303,Fala,Fala,Rua da Escola Nova - Fala- Sent. Bencanta,40.2022,-8.4674,,,0,
10304,Infante Dom Henrique 1,Inf. D. Henrique 1,Rua Infante D. Henrique (1) - Fala  - Sent. Covoes,40.2007,-8.4655,,,0,
10305,Infante Dom Henrique 2,Inf. D. Henrique 2,Rua Infante D. Henrique (2) - Fala  - Sent. Covoes,40.1998,-8.4643,,,0,
10306,Rua da Republica 2,Rua da Republica 2,Rua da Republica (2) - Fala - Sent. Bencanta,40.2011,-8.4632,,,0,
10307,Bairro das Flores,Bairro das Flores,Estrada das Touregas (Bairro das Flores) - Sent. Covoes,40.1912,-8.4636,,,0,
10308,Espirito Santo das Touregas,Esp. Santo das Touregas,Esp. Santo das Touregas (Inicio C. M. 1075) ,40.1906,-8.4691,,,0,
10309,Bairro das Flores,Bairro das Flores,Estrada das Touregas (Bairro das Flores) - Sent. Valongo,40.1912,-8.4636,,,0,
10310,Infante Dom Henrique 3,Inf. D. Henrique 3,Rua Infante D. Henrique (3) - Fala  - Sent. Covoes,40.1983,-8.463,,,0,
10311,Espirito Santo das Touregas (Cruzamento),Esp. Sto Touregas(X),Esp. Santo das Touregas - Cruz. - Sent. Covoes,40.1859,-8.47,,,0,
10312,Espirito Santo das Touregas (Centro),Esp. Sto Touregas (C),Esp. Santo das Touregas (Centro) - Sent. Coalhadas ,40.1891,-8.4694,,,0,
10313,Espirito Santo das Touregas (Centro),Esp. Sto Touregas (C),Esp. Santo das Touregas (Centro) - Sent. Valongo,40.1886,-8.4694,,,0,
10314,Espirito Santo das Touregas (Cruzamento),Esp. Sto Touregas (X),Esp. Santo das Touregas (Cruz.) - Sent. Coalhadas,40.1864,-8.4702,,,0,
10315,Espirito Santo das Touregas (Cruzamento),Esp. Sto Touregas (X),Esp. Santo das Touregas (Cruz.) - Sent. Valoango,40.1855,-8.4705,,,0,
10316,Estrada das Touregas,Estrada das Touregas,Estrada do Espirito Santo  - Sent. Esp. Santo,40.1884,-8.4669,,,0,
10317,Estrada das Touregas,Estrada das Touregas,Estrada do Espirito Santo  - Sent. Covoes,40.1887,-8.4665,,,0,
10318,Cavaleira,R. da Cavaleira,R. da Cavaleira - Esp. Santo - Sent. Valongo,40.1833,-8.4718,,,0,
10319,Cavaleira,R. da Cavaleira,R. da Cavaleira - Esp. Santo - Sent. Esp. Santo,40.1837,-8.4715,,,0,
10320,Adoes,Adoes,C.M. 1138 - Adoes (2F Ponto de Horario) - Sent. Sgt. Mor,40.2821,-8.4521,,,0,
10321,Adoes (Sul),Adoes (Sul),C.M. 1138 - Adoes (Sul) - Sent. Adoes,40.281,-8.4538,,,0,
10322,Adoes (Sul),Adoes (Sul),C.M. 1138 - Adoes (Sul) - Sent. Coimbra,40.2807,-8.4541,,,0,
10323,Adoes,Adoes,C.M. 1138 - Adoes (2F Ponto de Horario) - Sent. Coimbra,40.2819,-8.4523,,,0,
10324,Adoes (Norte),Adoes (Norte),Rua das Chas - Adoes (norte) - Sent. Sargento Mor,40.2849,-8.4512,,,0,
10325,Adoes (Norte),Adoes (Norte),Rua das Chas - Adoes (norte) - Sent. Coimbra,40.2845,-8.4514,,,0,
10326,Trouxemil (Centro),Trouxemil (C),Trouxemil (Centro),40.275,-8.4538,,,0,
10327,Trouxemil ,Trouxemil ,C. M. 1138 - Trouxemil - Sent. Adoes,40.2779,-8.4542,,,0,
10328,Trouxemil (Junta),Trouxemil (Junta),Trouxemil (Junta de Freguesia),40.274,-8.4523,,,0,
10329,Trouxemil (Cruzamento),Trouxemil (X),Trouxemil (Inicio da Estrada para Cioga),40.2752,-8.4545,,,0,
10330,Cruzamento para Rios Frios,Cruz.Rios Frios,Estrada para Cioga do Monte (Cruz. para Rios Frios),40.2728,-8.4558,,,0,
10331,Trouxemil ,Trouxemil ,C. M. 1138 - Trouxemil -Sent. Coimbra,40.2775,-8.4544,,,0,
10332,Cioga do Monte,Cioga do Monte,,40.2675,-8.4511,,,0,
10333,Alcarraques,Alcarraques,Alcarraques - junto a Capela - Sent. Rios Frios,40.2625,-8.4604,,,0,
10334,Alto da Cioga,Alto Cioga,Alto da Cioga,40.2683,-8.4543,,,0,
10335,Cioga (Centro),Cioga do Monte (C),Cioga do Monte (Centro),40.2667,-8.4521,,,0,
10336,Alcarraques,Alcarraques,Alcarraques (terminus 2A) - junto a Capela - Sent. Ademia,40.2623,-8.4605,,,0,
10337,Alcarraques (Casa da Mestra),Alcarraques (C),Alcarraques - Casa da Mestra (Junto ao Fontenario) - Sent. Rios Frios,40.2609,-8.4598,,,0,
10338,Alcarraques (Casa da Mestra),Alcarraques (C),Alcarraques - Casa da Mestra (Junto ao Fontenario) - Sent. Ademia,40.2605,-8.4593,,,0,
10339,Alcarraques (Barrios),Alcarraques (S),Est. de Alcarraques (Barrios) - Sent. Rios Frios,40.257,-8.4606,,,0,
10340,Alcarraques (Barrios),Alcarraques (S),Est. de Alcarraques (Barrios) - Sent. Ademia,40.2564,-8.4608,,,0,
10341,Alcarraques (Celeiro),Alcarraques (S),Est. de Alcarraques (Celeiro) - Sent. Rios Frios,40.2598,-8.4588,,,0,
10342,Alcarraques (Celeiro),Alcarraques (S),Est. de Alcarraques (Celeiro) - Sent. Ademia,40.2595,-8.4589,,,0,
10343,Ademia (Centro de Saude),Ademia (C. Saude),E. N. 111 (Centro de Saude da Ademia) - Sent. Alcarraques,40.2512,-8.4551,,,0,
10344,Ademia (Centro de Saude),Ademia (C. Saude),E. N. 111 (Centro de Saude da Ademia) - Sent. Coimbra ,40.251,-8.4549,,,0,
10345,Ademia de Baixo,Ademia B.,E. N. 111 Ademia (apos P. de Nivel) - Sent. Alcarraques,40.2506,-8.4514,,,0,
10346,Sao Martinho (Cruzamento),S. Martinho (X),Est. Nova (S. M. Bispo) - Cruz das Cruzes - Sent. Bencanta,40.2097,-8.4592,,,0,
10347,Escola Superior Agraria,E. Sup. Agraria,E. N. 341 (Esc. Sup. Agraria) - Sent. Taveiro,40.2144,-8.4515,,,0,
10348,Escola Superior Agraria,E. Sup. Agraria,E. N. 341 (Esc. Sup. Agraria) - Sent. Coimbra,40.2142,-8.4509,,,0,
10349,Bencanta (Apeadeiro),Bencanta (Apeadeiro),E. N. 341 - Bencanta (Apeadeiro) - Sent. Taveiro,40.2144,-8.4561,,,0,
10350,Bencanta,Bencanta,Bencanta (Estrada de acesso a Esc. Agraria) - Sent. Coimbra,40.2139,-8.456,,,0,
10351,Tojeira Norte,R. Tojeira (N) ,Rua da Tojeira (Norte),40.2561,-8.4169,,,0,
10352,Bencanta (Junta de Freguesia),Bencanta (J. Freguesia),E. N. 110-2 - Bencanta (Junta de Freguesia) - Sent.Coimbra,40.2145,-8.4589,,,0,
10353,Ladeira de Sao Martinho,Ladeira S. Martinho,Ladeira de S. Martinho (Res. Universitaria) - Sent. Coimbra,40.2123,-8.4566,,,0,
10354,Ladeira de Sao Martinho,Ladeira S. Martinho,Ladeira de S. Martinho (Res. Universitaria) - Sent. Covoes,40.2122,-8.4566,,,0,
10355,Sao Martinho,S. Martinho,S. Martinho do Bispo (Escola) - Sent. Covoes,40.2108,-8.4574,,,0,
10356,Sao Martinho,S. Martinho,S. Martinho do Bispo (Escola) - Sent. Coimbra,40.2108,-8.4571,,,0,
10357,Sao Martinho (Cruzamento),S. Martinho (X),Av. Nova (S. M. Bispo - Cruz. das Cruzes) - Sent. Covoes,40.2099,-8.4591,,,0,
10358,Rua das Cruzes,R.Cruzes,Rua das Cruzes-Sent. S. Martinho,40.2101,-8.4606,,,0,
10359,Rua das Cruzes,R.Cruzes,Rua das Cruzes-Sent. Fala,40.2103,-8.4606,,,0,
10360,Bencanta (Apeadeiro),Bencanta (Apeadeiro),Bencanta (Apeadeiro) - Sent. Coimbra,40.2149,-8.4562,,,0,
10361,Gorgulhao,Gorgulhao,Gorgulhao - Sent. Coimbra,40.2156,-8.4534,,,0,
10362,Rua do Freixo,R. Freixo,Rua do Freixo - Sent. Coimbra,40.21648,-8.45137,,,0,
10363,Estrada de Vilarinho,Estrada de Vilarinho,,40.255,-8.4235,,,0,
10364,Bissaya Barreto,Bissaya Barreto,E. N. 110-2 - Parreiras - Bissaya Barreto - Sent. Coimbra,40.2136,-8.4611,,,0,
10365,Bayer,Bayer,Rua da Bayer - Sent. Cruzeiro,40.2003,-8.4604,,,0,
10366,Cruzeiro,Cruzeiro,S. Martinho (Largo do Cruzeiro) - Sent. Covoes,40.2057,-8.4594,,,0,
10367,Bayer,Bayer,Rua dos Covoes (Largo da Bayer) - Sent. Covoes,40.2005,-8.4605,,,0,
10368,Sao Martinho (CTT),S. Martinho (CTT),Rua dos Covoes (CTT) - Sent. Covoes,40.2025,-8.4592,,,0,
10369,Sao Martinho (CTT),S. Martinho (CTT),Rua dos Covoes (CTT) - Sent. Bencanta ,40.2028,-8.4592,,,0,
10370,Cruzeiro,Cruzeiro,Sao Martinho (Largo do Cruzeiro) - Sent. Bencanta,40.2056,-8.4591,,,0,
10371,Avenida Nova,A.Nova,S. Martinho (Av. Nova) - Sent. Covoes,40.2079,-8.4601,,,0,
10372,Avenida Nova,A.Nova,S. Martinho (Av. Nova) - Sent. Bencanta,40.2069,-8.4598,,,0,
10373,Rua da Republica 1,Rua da Republica 1,Rua da Republica (1) - Fala - Sent. Bencanta,40.2009,-8.4616,,,0,
10374,Ladeira dos Alqueves,L. Alqueves,Ladeira dos Alqueves,40.2003,-8.4498,,,0,
10375,Rua 5 de Outubro,R. 5 de Outubro,Rua 5 de Outubro - Sent. Covoes,40.1992,-8.4613,,,0,
10376,Ribeiro da Povoa (Cruzamento),Ribeira da Povoa (X),E.N. 341 (Est. Covoes) - Cruz. Rib. da Povoa - Sent. Covoes,40.1957,-8.4563,,,0,
10377,Cimo de Fala,Cimo de Fala ,Cimo de Fala - Pr. Joao Serrano (Esc. de Enfermagem) - Sent. Covoes,40.198,-8.4616,,,0,
10378,Rua 5 de Outubro,R. 5 de Outubro,Rua 5 de Outubo (Esc. de Enfermagem) - Sent. S. Martinho,40.1982,-8.4616,,,0,
10379,Ribeiro da Povoa (Cruzamento),Rib. da Povoa (X),E. N. 341 (Est. Covoes) - Cruz. Rib. Povoa - Sent. Sta. Clara,40.1947,-8.4564,,,0,
10380,Povoa (Centro),Povoa (C),E. N.341 - Povoa - Sent. Santa Clara,40.1965,-8.4538,,,0,
10381,Povoa (Centro),Povoa (C),E. N. 341 - Povoa - Sent. Covoes,40.196,-8.4538,,,0,
10382,Dom Francisco de Lemos,Fran.Lemos,Rua Dom Francisco de Lemos - Polo II,40.1844,-8.416,,,0,
10383,Covoes (Hospital),Covoes (Hospital),Rua dos Covoes (Hospital) - Sent. Santa Clara,40.1961,-8.4614,,,0,
10384,Covoes (Hospital),Covoes (Hospital),Rua dos Covoes (Hospital) - Sent. S. Martinho,40.1951,-8.461,,,0,
10385,Covoes (Centro de Saude),Covoes (C. Saude),Est. das Touregas (C. Saude-S. Martinho) - Sent. Esp. Santo ,40.1939,-8.4606,,,0,
10386,Covoes (Centro de Saude),Covoes (C. Saude),Est.das Touregas (C. Saude-S. Martinho)- Sent. Covoes,40.194,-8.4606,,,0,
10387,Bairro das Flores (Cruzamento),B. das Flores (X),Rua das Touregas (Cruz. p/ a Esc. Ines de Castro)- Sent. Esp. Santo,40.1922,-8.4611,,,0,
10388,Bairro das Flores (Cruzamento),B. das Flores (X),Rua das Touregas (Cruz. p/ a Esc. Ines de Castro)- Sent. Covoes,40.1917,-8.4612,,,0,
10389,Escola Ines de Castro,Esc. Ines Castro,Esc. 2- 3 Ines de Castro - Sent. Covoes,40.1915,-8.4581,,,0,
10390,Escola Ines de Castro,Esc. Ines Castro,Esc. 2- 3 Ines de Castro - Sent. Santa Clara,40.1914,-8.4578,,,0,
10391,Povoa,Povoa,E. N. 341 - Povoa - (Cruz. Quinta Cabeleira) - Sent. Santa Clara,40.1955,-8.4526,,,0,
10392,Caminho das Vinhas 1,Caminho Vinhas 1,Caminho das Vinhas (Paragem 1),40.1972,-8.4521,,,0,
10393,Caminho das Vinhas 2,Caminho Vinhas 2,Caminho das Vinhas (Paragem 2),40.1989,-8.4525,,,0,
10394,Cruz dos Moroucos,Cruz Moroucos,Est. Cruz dos Moroucos - Sent. Cruz dos Moroucos,40.1832,-8.4513,,,0,
10395,Cruz dos Moroucos (Centro),Cruz Moroucos (C),Cruz dos Moroucos (Centro - terminus),40.1813,-8.4519,,,0,
10396,Cruz dos Moroucos,Cruz Moroucos,Est. Cruz dos Moroucos - Sent. Coimbra,40.1828,-8.4509,,,0,
10397,Sargento Mor (Sul),Sarg. Mor (S),Estrada do Lameirao - sent. Sargento-Mor,40.2878,-8.4491,,,0,
10398,Fornos (Este),Fornos (E),Fornos (Rot. Cioga do Monte) - Sent. Trouxemil,40.2677,-8.4444,,,0,
10399,Fornos (Este),Fornos (E),Fornos (Fundo da Est. da Cioga) - Sent. Coimbra,40.2674,-8.4452,,,0,
10400,Fornos,Fornos,Fornos (acesso ao viaduto) - Sent. Trouxemil,40.2667,-8.4417,,,0,
10401,Fornos,Fornos,Fornos (acesso ao viaduto) - Sent. Coimbra,40.2668,-8.4414,,,0,
10402,Vilela (Cruzamento),Vilela (X),E. N. 1 (Cruz. p/ Vilela) - Sent. Fornos,40.2624,-8.4413,,,0,
10403,Vilela (Cruzamento),Vilela (X),E. N. 1 (Cruz. p/ Vilela) - Sent. Coimbra,40.2612,-8.4418,,,0,
10404,Ademia (Norte),Ademia (N),E. N. 1 (Junto ao Betao Liz) - Sent. Fornos,40.2556,-8.4439,,,0,
10405,Ademia (Norte),Ademia (N),E. N. 1 (Junto ao Betao Liz) - Sent. Coimbra,40.2553,-8.444,,,0,
10406,Estrada Logo de Deus 1,Est. L Deus 1,Est. p/ Logo de Deus 1 -Sent. Logo de Deus ,40.2535,-8.4406,,,0,
10407,Estrada Logo de Deus 3,Estr.L. Deus 3,Estrada Logo de Deus 3 - Sent. Coimbra,40.2553,-8.4378,,,0,
10408,Estrada Logo de Deus 2,Estr.L. Deus 2,Estrada Logo de Deus - 2 - Sent. Coimbra,40.2547,-8.4393,,,0,
10409,Estrada Logo de Deus 2,Est. Logo Deus 2,Est. p/ Logo de Deus 2 -Sent. Logo de Deus,40.2546,-8.4397,,,0,
10410,Urbanizacao Colina do Sol,Urb. Colina do Sol,E. N. 1 - Urb. Colina do Sol - Sent. Fornos,40.2527,-8.4433,,,0,
10411,Urbanizacao Colina do Sol,Urb. Colina do Sol,E. N. 1- Urb. Colina do Sol - Sent. Coimbra,40.2529,-8.4436,,,0,
10412,Ademia (Centro) ,Ademia (C),E. N. 111 - Ademia (Centro) - Sent. Alcarraques,40.2511,-8.4468,,,0,
10413,Ademia (Passagem de Nivel),Ademia (P. N.),E. N. 111 Ademia (apos P. de Nivel) - Sent. Coimbra,40.2503,-8.4501,,,0,
10414,Ademia (Cruzamento),Ademia (X),Ademia (Cruzamento) - Junto a Rotunda - Sent. Coimbra,40.251,-8.444,,,0,
10415,Ponte de Eiras,Ponte de Eiras,E. M. 537-2 (Ponte de Eiras) - Sent. Coimbra,40.2504,-8.4407,,,0,
10416,Ademia (Centro) ,Ademia (C),E. N. 111 Ademia (Centro) - Sent. Coimbra,40.2509,-8.4469,,,0,
10417,Ademia (Cruzamento),Ademia (X),Ademia (Cruzamento) - Junto a Rotunda - Sent. Alcarraques,40.2511,-8.4439,,,0,
10418,Ponte de Eiras,Ponte Eiras,Estrada p/ Logo de Deus - Ponte de Eiras - Sent. Logo de Deus,40.2526,-8.4421,,,0,
10419,Ponte de Eiras (Rotunda),Ponte Eiras (Rot.),E. M. 537-2 (Rot. Ponte de Eiras) - Sent. Coimbra,40.2508,-8.4422,,,0,
10420,Ponte de Eiras,Ponte Eiras ,E. M. 537-2 (Ponte de Eiras) - Sent. Santa Apolonia,40.2503,-8.441,,,0,
10421,Bairro Nossa Senhora de Fatima,Q.Canaviais,E. N. 1 (B. Nossa Senhora de Fatima) - Sent. Ademia,40.2479,-8.4425,,,0,
10422,Bairro Nossa Senhora de Fatima,Q.Canaviais,E. N. 1 (B. Nossa Senhora de Fatima) - Sent. Coimbra,40.2475,-8.4424,,,0,
10423,Ademia (Passagem de Nivel),Ademia (P. N.),E. N. 111 Ademia (antes P. de Nivel) - Sent. Alcarraques,40.2504,-8.4494,,,0,
10424,Antonio Correia de Oliveira,Ant.Corr.Ol.,Antonio Correia de Oliveira- R - Ponte de Eiras - Sent. Coimbra,40.2527,-8.4415,,,0,
10425,Ponte de Eiras ,P.te Eiras - Bombas,Estrada Logo de Deus - Ponte de Eiras ( Bombas )- Sent. Coimbra,40.2509,-8.4423,,,0,
10426,Pedrulha (Centro),Pedrulha (C),Pedrulha (Centro) - Sent. Coimbra,40.2425,-8.4459,,,0,
10427,Pedrulha (Sul),Pedrulha (S),E. N.1 - Pedrulha (Estaco) - Sent. Coimbra,40.2385,-8.4446,,,0,
10428,Pedrulha (Cruzamento),Pedrulha (X),Cruz. da Pedrulha (ex-matadouro) - Sent. Ademia,40.2419,-8.4422,,,0,
10429,Pedrulha (Sul),Pedrulha (S),E. N. 1 - Pedrulha (Estaco) - Sent. Ademia,40.2388,-8.4442,,,0,
10430,Pedrulha (Cruzamento),Pedrulha (X),Cruz. da Pedrulha (Churrasqueira) - Sent. Pedrulha,40.2428,-8.4427,,,0,
10431,Pedrulha (Centro de Formacao),Pedrulha(C.Form.),Pedulha (Centro de Formacao) - Sent. Est. Eiras,40.2394,-8.4394,,,0,
10432,Pedrulha (Centro de Formacao),Pedrulha(C.Form.),Pedrulha (Centro de Formacao) - Sent. Pedrulha (Centro),40.2391,-8.4391,,,0,
10433,Pedrulha (Cruzamento),Pedrulha (X),Cruz. da Pedrulha (ex-matadouro) - Sent. Estacao Velha,40.2418,-8.442,,,0,
10434,Pedrulha,Pedrulha,Rua 1o de Maio 1 - Sent. Coimbra,40.2409,-8.4468,,,0,
10435,Pedrulha (Escola),Pedrulha (Esc.),Rua 1o de Maio 2 (Escola ) - Sent. Coimbra,40.2395,-8.4454,,,0,
10436,Loreto (Passag. Nivel),Loreto (Passag. Nivel),Rua da Constituicao (passagem nivel Loreto ) -  Sent. Coimbra,40.23572,-8.44518,,,0,
10437,Loreto ,Loreto (Passag. Nivel),Rua da Constituicao (passagem nivel Loreto ) -  Sent. Pedrulha,40.236605,-8.444977,,,0,
10438,Loreto (Cruzamento),Loreto (X),E. N. 1 - Loreto - Sent. Pedrulha,40.2329,-8.4388,,,0,
10439,Loreto (Cruzamento),Loreto (X),E. N. 1 - Loreto - Sent. Coimbra,40.233,-8.4391,,,0,
10440,Alto da Estacao Velha,Alto Est. Velha,Alto da Est. Velha - Sent. Coimbra,40.2266,-8.4398,,,0,
10441,Alto da Estacao Velha,Alto Est. Velha,Alto da Est. Velha - Sent. Pedrulha,40.2268,-8.4396,,,0,
10442,Relvinha,Relvinha,E. N. 1 (Zona Industrial - Fabrica da Cerveja) - Sent. Coimbra,40.2351,-8.4432,,,0,
10443,Relvinha,Relvinha,E. N. 1 (Zona Industrial - Fabrica da Cerveja) - Sent. Pedrulha,40.2349,-8.4424,,,0,
10444,Estacao Coimbra B,Est. Coimbra B,Estrada de Eiras (Rot. da Estacao Velha) - Sent. Centro,40.224,-8.4388,,,0,
10445,Estacao Coimbra B,Est. Coimbra B,Estacao Velha - Sent. Centro,40.2241,-8.4399,,,0,
10446,Estacao Coimbra B,Est. Coimbra B,Rua do Padrao (Est. Velha) - Sent. Pedrulha,40.2226,-8.4394,,,0,
10447,Rua do Padrao,P.Ecovia1,Casa do Sal Norte (Parque Ecovia 1) - Sent.Centro,40.222,-8.4394,,,0,
10448,Casa do Sal 2,P.Ecovia2,Casa do Sal Sul (Parque Ecovia 2) - Sent.Centro,40.2186,-8.4386,,,0,
10449,Casa do Sal,Parque Ecovia,Casa do Sal Sul (Parque Ecovia) - Sent.Centro,40.2175,-8.4384,,,0,
10450,Guarda Inglesa,G. Inglesa,Av. Guarda Inglesa (Guarda Inglesa) - Sent. Taveiro,40.211,-8.4398,,,0,
10451,Forum de Coimbra,Forum,Jose Bonifacio A. Silva- R. (Forum) - Sent. Desc.,40.2128,-8.4436,,,0,
10452,Almegue,Almegue,Almegue (sob a Ponte Acude) - Sent. Taveiro,40.215,-8.4416,,,0,
10453,Cruzamento Bairro das Fachadas,Cz. B.ro Fachadas,Est. Principal do Vale Velho - Cz. Bairro das Fachadas - sent. S. Paulo Frades,40.242144,-8.402386,,,0,
10454,Vale Gemil,Vale Gemil,E.N. 341 (Vale Gemil) - Sent. Taveiro,40.2145,-8.4482,,,0,
10455,Vale Gemil,Vale Gemil,Estrada de acesso a Esc. Sup. Agraria (Vale Gemil) - Sent. Coimbra,40.2145,-8.4469,,,0,
10456,Vale Gemil,Vale Gemil,Vale Gemil - Entrada E.N. 341 - Sent Coimbra,40.2144,-8.4466,,,0,
10457,Forum de Coimbra,Forum,Jose Bonifacio A. Silva- Av. (Forum) - Sent. Sta Clara,40.2125,-8.4451,,,0,
10458,Almas de Freire,Almas Freire,Carrington da Costa- R. - Almas de Freire - Dir. Covoes,40.1993,-8.441,,,0,
10459,Almas de Freire,Almas Freire,Carrington da Costa- R. - Almas de Freire - Dir. Portagem,40.1992,-8.4411,,,0,
10460,Santa Clara (Centro de Saude),S.ta Clara (C. Saude),C. Saude de Santa Clara - Via Nova St. Clara - Sent. Rot. do Lagar,40.2025,-8.4431,,,0,
10461,Vale do Rosal 1,Vale do Rosal 1,Vale do Rosal (Paragem 1),40.1992,-8.4477,,,0,
10462,Caminho do Cabeco,Caminho do Cabeco,Caminho do Cabeco - sent. Q. da Portela,40.1869,-8.4094,,,0,
10463,Ruben A.,R. Ruben A.,R. Ruben A. - Quinta da Portela,40.1848,-8.4054,,,0,
10464,Rua o Conimbricence 1,R. Conimbricence ,R. Conimbricence 1 - sent. Polo II,40.1833,-8.4052,,,0,
10465,Rotunda do Lagar,Rot. das Almas,Jose Almeida Balbino- Rua - Rotunda do Lagar - Term. 38,40.2004,-8.4405,,,0,
10466,Urbanizacao Santa Isabel,Urb. S. Isabel,Jose Almeida Balbino- Rua - Urb. Santa Isabel - Sent. C. Saude S. Clara,40.2007,-8.4409,,,0,
10467,Augusto Matos 2,Aug. Matos 2,Augusto de Matos- R. (Paragem 2) - Sent. G. Inglesa,40.2022,-8.44,,,0,
10468,Augusto Matos 3,Aug. Matos 3,Augusto de Matos- R. (Paragem 3) - Sent. G. Inglesa,40.2039,-8.4415,,,0,
10469,Coelho Rocha 1,Coelho Rocha 1,Coelho da Rocha- R. (Paragem 1) - Sent. G. Inglesa,40.2055,-8.4406,,,0,
10470,Jose Bonifacio de Andrade e Silva,Planalto,Jose Bonifacio A. Silva- Av. (Via do Planalto) - Sent. Centro Saude Sta Clara,40.2059,-8.4443,,,0,
10471,Jose Bonifacio de Andrade e Silva,Planalto,Jose Bonifacio A. Silva- Av. (Via do Planalto) - Sent. Forum,40.206,-8.4441,,,0,
10472,Santa Clara (Centro de Saude),S.ta Clara (C. Saude),C. Saude de Santa Clara - Via Nova St. Clara - Sent. Forum,40.2026,-8.4439,,,0,
10473,Bairro Azul,Bairro Azul,E.N. 341/Est. dos Covoes - Bairro Azul - Dir. Covoes,40.1979,-8.4445,,,0,
10474,Mesura,Mesura,E.N. 341/Est. dos Covoes - Mesura - Dir. Portagem,40.1962,-8.4466,,,0,
10475,Bairro Azul,Bairro Azul,E.N. 341/Est. dos Covoes - Bairro Azul - Dir. Portagem,40.1979,-8.4444,,,0,
10476,Mesura,Mesura,E.N. 341 (Est. Covoes - Mesura) -Sent. Covoes,40.1961,-8.4468,,,0,
10477,Vitorino Planas 1,Vit. Planas 1,Vitorino Planas- R. (Paragem 1)- Sent. Alto dos Barreiros,40.199,-8.4388,,,0,
10478,Vitorino Planas 1,Vit. Planas 1,Vitorino Planas- R. (Paragem 1) - Sent. Santa Clara,40.1992,-8.4386,,,0,
10479,Capitao Pereirinha 1,Cap.Pereirinha 1,Capitao Pereirinha- R. (Paragem 1) - Sent. Alto dos Barreiros,40.1954,-8.4399,,,0,
10480,Capitao Pereirinha 1,Cap.Pereirinha 1,Capitao Pereirinha- R. (Paragem 1) - Sent. Santa Clara,40.1958,-8.4398,,,0,
10481,Barreiros 1,Barreiros 1,Barreiros (Paragem 1) - Sent. Alto dos Barreiros,40.1908,-8.4396,,,0,
10482,Barreiros 1,Barreiros 1,Barreiros (Paragem 1) - Sent. Santa Clara,40.1909,-8.4395,,,0,
10483,Alqueves,Alqueves,E. N. 341 (Est. dos Covoes - Alqueves) - Sent. Covoes,40.1953,-8.4498,,,0,
10484,Alqueves,Alqueves,E. N. 341 (Est. dos Covoes - Alqueves) - Sent. Almas de Freire,40.1953,-8.4492,,,0,
10485,Alqueves,Alqueves,Caminho das Vinhas (Ponto de Horario L. 41),40.196,-8.4502,,,0,
10486,Vale do Rosal 2,V. Rosal 2,Vale do Rosal (Paragem 2),40.1979,-8.4455,,,0,
10487,10 de Junho 1,10 de Junho 1,10 de Junho- R. (Paragem 1) - Sent. Alqueves,40.1928,-8.4484,,,0,
10488,10 de Junho 2,10 de Junho 2,10 de Junho- R. (Paragem 2) - Sent. Alqueves,40.1942,-8.4492,,,0,
10489,Capitao Pereirinha 2,Cap.Pereirinha 2,Capitao Pereirinha- R. (Paragem 2) - Sent. Alto dos Barreiros,40.1922,-8.4404,,,0,
10490,Capitao Pereirinha 2,Cap.Pereirinha 2,Capitao Pereirinha- R. (Paragem 2) - Sent. Santa Clara,40.1934,-8.4403,,,0,
10491,Vitorino Planas 2,Vit. Planas 2,Vitorino Planas- R. - Cemiterio de Santa Clara (Paragem 2) - Sent. Alto dos Barreiros,40.197,-8.4392,,,0,
10492,Vitorino Planas 2,Vit. Planas 2,Vitorino Planas- R. - Cemiterio de Santa Clara (Paragem 2) - Sent. Santa Clara,40.1974,-8.4391,,,0,
10493,Alto dos Barreiros 1,Alt.Barreiros 1,Alto dos Barreiros - (Paragem 1 junto Moveis Tenreiro)  - Sent. Santa Clara,40.1862,-8.4415,,,0,
10494,Senhora dos Aflitos,S.ra Aflitos,Senhora dos Aflitos (Rotunda),40.1824,-8.4481,,,0,
10495,Barreiros 2,Barreiros 2,Barreiros (Paragem 2) - Sent. Santa Clara,40.1888,-8.4408,,,0,
10496,Avelar Brotero,Avelar Brotero,Rua D. Manuel I - Esc. Avelar Brotero,40.2055,-8.4089,,,0,
10497,Barreiros 2,Barreiros 2,Barreiros (Paragem 2) - Sent. Alto dos Barreiros,40.1883,-8.4409,,,0,
10498,Alto dos Barreiros 1,Alt.Barreiros 1,Alto dos Barreiros (Paragem 1 junto Moveis Tenreiro)  - Sent. Cruz dos Moroucos,40.1859,-8.4418,,,0,
10499,Rua de Santa Clara,R.Sta.Clara,Rua de Santa Clara (No dos Carvalhais) - Sent. Assafarge,40.1809,-8.4428,,,0,
10500,Rua de Santa Clara,R.Sta.Clara,Rua de Santa Clara (No dos Carvalhais) - Sent. Coimbra,40.1806,-8.4417,,,0,
10501,Cruz dos Moroucos (Jardim de Infancia),C. Moroucos- J. Inf.,E. N. 1 Cruz Moroucos (Jardim Infancia) - Sent. Cruz Moroucos,40.1831,-8.4458,,,0,
10502,Cruz dos Moroucos (Jardim de Infancia),C. Moroucos- J. Inf.,E. N. 1 Cruz Moroucos (Jardim Infancia) - Sent. Santa Clara,40.1833,-8.445,,,0,
10503,Alto dos Barreiros 2,Alt.Barreiros 2,Alto dos Barreiros (Paragem 2)  - Sent. Cruz dos Moroucos,40.1847,-8.4426,,,0,
10504,Rua Principal,R. Principal - Carvalhais,Rua Principal - Carvalhais de Baixo - Sent. Assafarge,40.1723,-8.4389,,,0,
10505,Rua Principal,R. Principal - Carvalhais,Rua Principal - Carvalhais de Baixo - Sent. Coimbra,40.1724,-8.4388,,,0,
10506,Quinta da Machada,Q.ta Machada,Estrada Antiga de Lisboa (Quinta da Machada),40.1874,-8.4361,,,0,
10507,Algar,Algar,Rua Principal (Cruz. do Algar) - Sent. Assafarge,40.1754,-8.4407,,,0,
10508,Algar,Algar,Rua Principal (Cruz. do Algar) - Sent. Coimbra,40.1756,-8.4408,,,0,
10509,Caminho da Valdeira,Cam-Valdeira,Caminho da Valdeira - Sent. Ribeiro de Vilela,40.2754,-8.4269,,,0,
10510,Troviscal,Troviscal,Vilela - Rua do Troviscal - Sent. Coimbra,40.272,-8.4312,,,0,
10511,Ribeiro de Vilela,R. Vilela,Ribeiro de Vilela (Terminus L. 39),40.2772,-8.4288,,,0,
10512,Vilela (Centro),Vilela (C),Vilela (Centro) - Sent. Torre de Vilela,40.2686,-8.4303,,,0,
10513,Vilela (Centro),Vilela (C),Vilela (Centro) - Sent. Coimbra,40.2685,-8.4304,,,0,
10514,Vilela,Vilela,Rua do Campo de Futebol - Em 537-2 - Vilela - Sent Torre de Vilela,40.2668,-8.4345,,,0,
10515,Caselho,Caselho,Rua do Campo de Futebol - Em 537-2 - Caselho - Sent. Torre de Vilela,40.2646,-8.4388,,,0,
10516,Vilela (Junta de Freguesia),Vilela-J.Freg.,Vilela (Junta de Freguesia) - Sent. Rib. de Vilela,40.2709,-8.4269,,,0,
10517,Vilela (Junta de Freguesia),Vilela-J.Freg.,Vilela (Junta de Freguesia) - Sent. Coimbra,40.2705,-8.4273,,,0,
10518,Calvario 1,Calvario 1,Calvario- R. do - (Vilela) 1 - Sent. Coimbra,40.2655,-8.4301,,,0,
10519,Calvario 2,Calvario 2,Calvario- R. do - (Vilela) 2 - Sent. Coimbra,40.2642,-8.4297,,,0,
10520,Logo de Deus (Capela),L.Deus (Capela),Logo de Deus (Capela) - Sent. Coimbra,40.2654,-8.4278,,,0,
10521,Logo de Deus (Sul),L. Deus (S),Logo de Deus (Sul) - Sent. Coimbra,40.2633,-8.4292,,,0,
10522,Vilela (Escola),Vilela-Esc.,Vilela (Escola) - Sent. Rib. de Vilela,40.2699,-8.4286,,,0,
10523,Vilela (Escola),Vilela-Esc.,Vilela (Escola) - Sent. Coimbra,40.2697,-8.4291,,,0,
10524,Logo de Deus,Log. Deus,Rua Principal - Logo de Deus - Sent. Coimbra,40.2658,-8.4274,,,0,
10525,Joaquim de Carvalho 1 ,R. Joaquim de Carvalho 1,R. Joaquim de Carvalho 1  (desvio p/ Novo Horizonte) - Sent. Novo Horizonte,40.2566,-8.4371,,,0,
10526,Santa Apolonia (Centro),S.Apolonia(C),Bairro de Santa Apolonia (Cafe),40.254,-8.4361,,,0,
10527,Ferreira de Castro 1,R. Ferreira de Castro 1,R. Ferreira de Castro 1 - Sent. Santa Apolonia,40.2563,-8.435,,,0,
10528,Santa Apolonia (Escola Primaria),S.Apolonia(Esc.Pri.),Bairro de Santa Apolonia (Escola Primaria)-Sent.Ponte de Eiras,40.2546,-8.4345,,,0,
10529,Santa Apolonia (Escola Primaria),S.Apolonia(Esc.Pri.),Bairro de Santa Apolonia (Escola Primaria)-Sent. Eiras,40.2552,-8.4338,,,0,
10530,Santa Apolonia (Este),S.Apolonia-E,E. N. 537-2 (Santa Apolonia-Pao de Acucar) - Sent. Eiras,40.2548,-8.4292,,,0,
10531,Santa Apolonia (Este),S.Apolonia-E,E. N. 537-2 (Santa Apolonia-Pao de Acucar) - Sent. Ponte de Eiras,40.2549,-8.4305,,,0,
10532,Estrada Logo de Deus 3,Est. Logo Deus 3,Est. p/ Logo de Deus 3 -Sent. Logo de Deus,40.2555,-8.4379,,,0,
10533,Rua Principal 1,R. Principal 1,Rua Principal 1 - Sent. Coimbra,40.2618,-8.4326,,,0,
10534,Rua Principal 2,R. Principal 2,Rua Principal 2 - Sent. Coimbra,40.2599,-8.4349,,,0,
10535,Rua Principal 3,R. Principal 3,Rua Principal 3 - Sent. Coimbra,40.2582,-8.4362,,,0,
10536,Joaquim de Carvalho 2,R. Joaq. Carvalho 2,R. Joaquim de Carvalho 2 - Sent. Novo Horizonte,40.257,-8.4347,,,0,
10537,Ferreira de Castro 2,R. Ferr. Castro 2,R. Ferreira de Castro 2 - Sent. Santa Apolonia,40.2553,-8.4359,,,0,
10538,Escola Rainha Santa Isabel,Esc.Rainha.S.Isabel,E. N. 537-2 (Est. de Eiras) - Esc. Rainha Santa Isabel - Sent. Rot. da Ademia,40.2521,-8.4376,,,0,
10539,Santa Apolonia,Santa Apolonia,E. N. 537-2 (Santa Apolonia) - Sent. Rot. da Ademia,40.2532,-8.4349,,,0,
10540,Santa Apolonia,Santa Apolonia,E. N. 537-2 (Santa Apolonia) - Sent. Eiras,40.2533,-8.4343,,,0,
10541,Escola Rainha Santa Isabel,Esc.2-3 Pedrulha,E. N. 537-2 (Est. de Eiras) - Escola 2-3 da Pedrulha - Sent.Santa Apolonia,40.2521,-8.4374,,,0,
10542,Pragueira (Sul),Pragueira-Sul,E. N. 537 - Est. Eiras (Farbeira)-Sent. Eiras,40.2464,-8.4293,,,0,
10543,Pragueira (Sul),Pragueira-Sul,E. N. 537 - Est. Eiras (Farbeira)-Sent. B. Brinca,40.2459,-8.4299,,,0,
10544,Monte Romeiras,M.te Romeiras,E. N. 537 - Monte Romeiras (Esc. Sec. D. Dinis) - Sent. Eiras,40.2415,-8.4344,,,0,
10545,Monte Romeiras,M.te Romeiras,E. N. 537 - Monte Romeiras - Diario de Coimbra - Sent. B. Brinca,40.2417,-8.4344,,,0,
10546,Bairro de Sao Miguel (Centro),Bairro S. Miguel (C),Bairro Sao Miguel (Centro) - Sent. Est. de Eiras,40.2355,-8.4315,,,0,
10547,Estrada de Eiras (Relvinha),E.Eiras-Relvinha,E. M. 537 (Est. de Eiras - Renault) - Sent. Eiras,40.2375,-8.4359,,,0,
10548,Estrada de Eiras (Relvinha),E.Eiras-Relvinha,E. M. 537 (Est. de Eiras - Renault) - Sent. Estacao Velha,40.238,-8.4357,,,0,
10549,Bairro de Sao Miguel (Centro),B.S. Miguel (C),Bairro Sao Miguel (Centro) - Sent. Bairro da Liberdade,40.2356,-8.4326,,,0,
10550,Monte Romeiras (Norte),M.Romeiras (N),E. N. 537 - Est. Eiras - M. Romeiras (Norte) - Sent. Eiras,40.2438,-8.432,,,0,
10551,Monte Romeiras (Norte),M.Romeiras (N),E. N. 537 - Est. Eiras - M. Romeiras (Norte) - Sent. B.Brinca,40.2441,-8.4317,,,0,
10552,Vale de S. Miguel,V. S. Miguel,Vale de S. Miguel- R. - Sent. Ingote,40.238,-8.4272,,,0,
10553,Vale de S. Miguel,V. S. Miguel,Vale de S. Miguel- R. - Sent. Est. de Eiras,40.2377,-8.428,,,0,
10554,Bairro de Sao Miguel (Rotunda),B. Sao Miguel,E. N. 537 (Rot. do Bairro S. Miguel) - Sent. Monte Romeiras,40.2358,-8.4345,,,0,
10555,Bairro de Sao Miguel,B.S. Miguel,Bairro Sao Miguel - Sent. Bairro da Liberdade,40.2359,-8.4301,,,0,
10556,Urbanizacao do Loreto,Urb. Loreto,Rua Manuel Almeida e Sousa (Urb. Do Loreto) - Sent. Pedrulha,40.2304,-8.438,,,0,
10557,Bairro da Rosa (Cruzamento),Bairro da Rosa (X),Bairro da Rosa (Cruz.) - Sent. Bairro do Ingote,40.2272,-8.4307,,,0,
10558,Bairro da Rosa,Bairro da Rosa,Bairro da Rosa - Sent. Monte Formoso,40.2283,-8.4311,,,0,
10559,Urbanizacao do Loreto,Urb. Loreto,Rua Manuel Almeida e Sousa (Urb. Do Loreto) - Sent. Estacao Velha,40.2306,-8.4379,,,0,
10560,Bairro do Ingote,Bairro do Ingote,Bairro do Ingote (Ponto horario - L. 28) - Sent. Bairro da Liberdade,40.2305,-8.4293,,,0,
10561,Urbanizacao Ar e Sol,Urb. Ar e Sol,Urbanizacao Ar e Sol - Sent. Ingote,40.233,-8.4274,,,0,
10562,Bairro de Sao Miguel (Rotunda),B. Sao Miguel,E. N. 537 (Rot. do Bairro S. Miguel) - Sent. Est. Velha,40.2346,-8.4343,,,0,
10563,Bairro do Brinca,B. do Brinca,E. N. 537 (Est. Eiras - B. Brinca) - Sent. Est. Velha,40.2309,-8.4366,,,0,
10564,Bairro do Brinca,B. do Brinca,E. N. 537 (Est. Eiras - B. Brinca) - Sent. Monte Romeiras,40.2319,-8.4361,,,0,
10565,Bairro do Brinca (Relvinha),B. Brinca - Relvinha,E. N. 537 (Est. Eiras - B. Brinca/Relvinha) - Sent. Monte Romeiras,40.2336,-8.4347,,,0,
10566,Bairro de Sao Miguel (Sul),B. Sao Miguel (S),Est.de acesso B. Ingote/B. S. Miguel - Sent. Bairro Sao Miguel,40.234,-8.4304,,,0,
10567,Urbanizacao Ar e Sol,Urb. Ar e Sol,Urbanizacao Ar e Sol - Sent. Bairro da Liberdade,40.2333,-8.4273,,,0,
10568,Bairro do Ingote,B. do Ingote,Bairro do Ingote (Ponto horario - L. 27) - Sent. Monte Formoso ,40.2308,-8.4292,,,0,
10569,Bairro da Rosa,B. da Rosa ,Bairro da Rosa - Sent. Bairro do Ingote,40.2288,-8.4307,,,0,
10570,Estrada de Eiras (Gorgulao),B. do Brinca(S),E. N. 537 (Estrada de Eiras - Gorgulao - Cruz. LIDL) - Sent. Monte Romeiras,40.2275,-8.4373,,,0,
10571,Estrada de Eiras (Gorgulao),B. do Brinca(S),E. N. 537 (Estrada de Eiras - Gorgulao - Cruz. LIDL) - Sent. Est. Velha,40.2262,-8.4378,,,0,
10572,Loreto,Loreto,Jose Afonso- R. (Loreto),40.2331,-8.4382,,,0,
10573,Relvinha,Relvinha,5 de Outubro- R. (Relvinha),40.234,-8.4374,,,0,
10574,Relvinha (Norte),Relvinha (N),5 de Outubro- R. (Relvinha - Norte),40.2356,-8.4386,,,0,
10575,Monte Formoso 1,M.te Formoso 1,Rua Cidade de Poitier 1 (Monte Formoso) - Sent. Ingote,40.222,-8.4363,,,0,
10576,Coselhas (Vale Figueiras),Coselhas(VF) ,Est. de Coselhas (Cruz. Rua Vale Figueiras) - Sent. Centro,40.222,-8.4268,,,0,
10577,Rua Cidade de Yaroslav,R. Cid. Yaroslav,Rua Cidade de Yaroslav - Sent. Monte Formoso,40.2257,-8.4332,,,0,
10578,Rua Cidade de Fez,R. Cid. de Fez,Rua Cidade de Fez - Sent. Ingote,40.2254,-8.4324,,,0,
10579,Rotunda de Coselhas,Rot. de Coselhas,Circular Interna (Rot. de Coselhas),40.2206,-8.4295,,,0,
10580,Coselhas (Vale Figueiras),Coselhas(VF),Est. de Coselhas (Cruz. Rua Vale Figueiras) - Sent. Lordemao,40.2214,-8.4278,,,0,
10581,Estrada de Coselhas 2,Est. Coselhas 2,Est. de Coselhas 2 (Fucoli) - Sent. Lordemao,40.22,-8.4304,,,0,
10582,Estrada de Coselhas 2,Est. Coselhas 2,Est. de Coselhas 2 (Fucoli) - Sent. Centro,40.2198,-8.4311,,,0,
10583,Monte Formoso 1,M.te Formoso 1,Rua Cidade de Poitiers 1 (Monte Formoso) - Sent. Rot. Casa do Sal,40.2217,-8.4364,,,0,
10584,Rua do Padrao (Arco Pintado),Arco Pintado,Rua do Padrao (apos Rotunda Casa do Sal) - Sent. Pedrulha,40.2202,-8.4388,,,0,
10585,Rotunda da Casa do Sal,Rot.Casa Sal,Rua Cidade Poitiers (saida da Rot. Casa do Sal) - Sent. Ingote,40.2203,-8.4378,,,0,
10586,Parque da Casa do Sal 3,P.Ecovia3,Casa do Sal (Parque da ECOVIA 3),40.2186,-8.4378,,,0,
10587,Estrada de Coselhas 1,Est. Coselhas 1,Estrada de Coselhas 1 - Sent. Lordemao,40.2195,-8.4331,,,0,
10588,Rotunda da Casa do Sal,Rot.Casa Sal,Rua Cidade Poitiers (Rot. Casa do Sal) - Sent. Centro,40.2199,-8.4381,,,0,
10589,Estrada de Coselhas 1,Est. Coselhas 1,Estrada de Coselhas 1 - Sent. Centro,40.2194,-8.4335,,,0,
10590,Monte Formoso 2,M.te Formoso 2,Rua Cidade de Poitiers 2 (Monte Formoso) - Sent. Rot. Casa do Sal,40.2228,-8.4359,,,0,
10591,Monte Formoso 2,M.te Formoso 3,Rua Cidade de Poitier 2  (Monte Formoso) - Sent. Ingote,40.2232,-8.4357,,,0,
10592,Jardim da Manga (PSP),PSP ,Olimpio Nicolau Rui Fernandes - PSP 1 - Sent. Desc.,40.2116,-8.4278,,,0,
10593,Jardim da Manga (PSP),PSP ,Olimpio Nicolau Rui Fernandes - PSP 3 - Sent. Desc.,40.2116,-8.4283,,,0,
10594,Fernao de Magalhaes (Arnado),Edificio Coimbra,Fernao de Magalhaes- Av. (Edificio Coimbra) - Sent. Casa do Sal,40.214,-8.434,,,0,
10595,Palacio da Justica,Palacio,Joao Machado- R.  - Palacio 1,40.2149,-8.4327,,,0,
10596,Palacio da Justica,Palacio,Joao Machado- R.  - Palacio 2,40.2147,-8.4328,,,0,
10597,Palacio da Justica,Palacio,Joao Machado- R.  - Palacio 3,40.2147,-8.4328,,,0,
10598,Fernao Magalhaes (CTT),CTT,Fernao Magalhaes- Av. - CTT - Dir. Portagem,40.2123,-8.4331,,,0,
10599,Estacao Nova,Antonio Granjo,Antonio Granjo- R. - Esc. S. Bartolomeu,40.2095,-8.4319,,,0,
10600,Estacao Nova,Antonio Granjo,Antonio Granjo- R. - Est. Nova,40.2092,-8.4322,,,0,
10601,Loja do Cidadao, Loja do Cidadao,Fernao Magalhaes- Av. - Loja do Cidadao - Dir. Arnado,40.2112,-8.4322,,,0,
10602,Largo do Arnado,Largo do Arnado,Largo do  Arnado,40.2132,-8.4336,,,0,
10603,Arnado,Arnado,Manuel Rodrigues- R.  - Arnado 3,40.2135,-8.4324,,,0,
10604,Arnado (Casa da Mutualidade),Arnado,Manuel Rodrigues- R.  - Arnado 4,40.2141,-8.4319,,,0,
10605,Camara Municipal ,C. M. C.,Olimpio Nicolau Rui Fernandes - C. M. C. - Sent. Asc.,40.2116,-8.4284,,,0,
10606,Jardim da Manga,J. Manga,Olimpio Nicolau Rui Fernandes - J. Manga 2 - Sent. Asc.,40.2117,-8.4276,,,0,
10607,Antonio Jose de Almeida 1,A. J. Almeida 1,Antonio Jose de Almeida- R. - (X) Nic. Chant. - Dir. Celas,40.2138,-8.4282,,,0,
10608,Largo Vale do Coelho,Lg Vale do Coelho,Largo Vale do Coelho,40.2087,-8.3719,,,0,
10609,Conchada,Conchada,Aveiro- R. - Conchada ,40.2145,-8.4292,,,0,
10610,Rua de Aveiro,R.de Aveiro,Aveiro- R. - Cruz. Rua Figueira da Foz,40.2163,-8.4352,,,0,
10611,Fernao de Magalhaes  (Rodoviaria),RBL,Fernao de Magalhaes- Av. - R.B.L. - Sent. Est. Velha,40.2172,-8.4372,,,0,
10612,Fernao de Magalhaes  (Rodoviaria),RBL,Fernao de Magalhaes- Av. - R. B. L. - Sent. Arnado ,40.2161,-8.4363,,,0,
10613,Estevao Cabral,Estevao Cabral,Padre Estevao Cabral- R. ,40.2153,-8.4359,,,0,
10614,Fernao de Magalhaes (Arnado),Ed. Coimbra,Fernao de Magalhaes- Av. - Oposta Ed. Coimbra - Sent. Portagem ,40.2141,-8.4344,,,0,
10615,Loja do Cidadao, L. do Cidadao,Fernao de Magalhaes- Av. -  Loja do Cidadao - Sent. Portagem ,40.2109373,-8.4323072,,,0,
10616,SMTUC,G. Inglesa,Guarda Inglesa - Estacao de Recolha,40.2104,-8.4377,,,0,
10617,Palacio da Justica,Palacio,Sofia- R. da - Palacio (Teminus 39),40.2146,-8.4321,,,0,
10618,Transportes Urbanos de Coimbra,SMTUC,Av. de Conimbriga (junto aos SMTUC) - Sent. Portagem,40.2102,-8.4372,,,0,
10619,Beira Rio ,Beira Rio,Emidio Navarro- Av. - Beira Rio 1,40.2078,-8.4315,,,0,
10620,Beira Rio ,Beira Rio,Emidio Navarro- Av. - Beira Rio 2,40.2076,-8.4312,,,0,
10621,Beira Rio ,Beira Rio,Emidio Navarro- Av. - Beira Rio 3,40.2075,-8.4311,,,0,
10622,Beira Rio ,Beira Rio,Emidio Navarro- Av. - Beira Rio 4,40.2074,-8.431,,,0,
10623,Beira Rio ,Beira Rio,Emidio Navarro- Av. - Beira Rio 5,40.2074,-8.4308,,,0,
10624,Beira Rio ,Beira Rio,Emidio Navarro- Av. - Beira Rio 9,40.2073034,-8.430478,,,0,
10625,Pinto de Abreu,Pinto Abreu 1,Carlos Alberto Pinto de Abreu- R. - Paragem 1 - Sent. Asc.,40.2007,-8.4359,,,0,
10626,Pinto de Abreu (Calcadas),Pinto Abreu 2,Carlos Alberto Pinto de Abreu- R. - Paragem 2 - Sent. Asc.,40.1992,-8.4357,,,0,
10627,Rainha Santa,Rainha Santa,Mendes dos Remedios- R. - Rainha Santa - Sent.Asc.,40.2005,-8.4374,,,0,
10628,Rainha Santa,Rainha Santa,Carrington da Costa- R. - Rainha Santa - Dir. Portagem,40.2001,-8.4385,,,0,
10629,Pinto de Abreu (Calcadas),Pinto Abreu 2,Carlos Alberto Pinto de Abreu- R. - Paragem 2 - Sent. Desc.,40.1998,-8.4357,,,0,
10630,Pinto de Abreu,Pinto Abreu 1,Carlos Alberto Pinto de Abreu- R. - Paragem 1 - Sent. Desc.,40.2014,-8.4358,,,0,
10631,Rossio de Santa Clara,Rossio ,Joao das Regras- Av. - Rossio de S. Clara - Dir. Portagem,40.2034,-8.4333,,,0,
10632,Portagem,Portagem,Emidio Navarro- Av. - Portagem 1 - Dir. Arnado,40.2072,-8.4302,,,0,
10633,Portagem,Portagem,Emidio Navarro- Av. - Portagem 2 - Dir. Arnado,40.2076,-8.4305,,,0,
10634,Portagem,Portagem,Emidio Navarro- Av. - Portagem 3 - Dir. Arnado,40.2078,-8.4307,,,0,
10635,Portagem,Portagem,Emidio Navarro- Av. - Portagem 4 - Dir. Arnado,40.2079,-8.4308,,,0,
10636,Parque,Parque,Emidio Navarro- Av. - Parque Dr. Manuel Braga 1 - Dir. Av. Lousa,40.2069,-8.4291,,,0,
10637,Parque,Parque,Emidio Navarro- Av. - Parque Dr. Manuel Braga 2 - Dir. Av. Lousa,40.2065,-8.429,,,0,
10638,Escola Silva Gaio,Esc. Silva Gaio,Escola Basica 2-3 Silva Gaio (junto da escola),40.2079,-8.4367,,,0,
10639,Escola Dom Duarte,Esc. D. Duarte,Esc. Secundaria D. Duarte,40.1992,-8.4323,,,0,
10640,Rainha Santa,Rainha Santa,Vitorino Planas- R.(Cruz. com Rua Carrington - Santa Clara),40.2,-8.4381,,,0,
10641,Feitoria dos Linhos,F. dos Linhos,Feitoria dos Linhos- R. (Portugal dos Pequenitos),40.2014,-8.4344,,,0,
10642,Estadio Universitario,Estadio Univ.,Av. de Conimbriga (Estadio Universitario) - Sent. Guarda Inglesa,40.2059,-8.4324,,,0,
10643,Portagem,Portagem,Emidio Navarro- Av. - Portagem 5 - Dir. Arnado,40.2079,-8.4311,,,0,
10644,Portagem,Portagem,Emidio Navarro- Av. - Portagem 6 - Dir. Arnado,40.208,-8.4312,,,0,
10645,Portagem,Portagem,Emidio Navarro- Av. - Portagem 7 - Dir. Arnado,40.2075,-8.4303,,,0,
10646,Portugal dos Pequenitos,Port. Pequenitos,Guarda Inglesa- Av. - (Rot.Rossio Sta Clara)  - Sent. Sta Clara,40.2037,-8.4353,,,0,
10647,Coelho Rocha 2,Coelho Rocha 2,Coelho da Rocha- R. (Paragem 2) - Sent. G. Inglesa,40.206,-8.4387,,,0,
10648,Guarda Inglesa,G. Inglesa,Guarda Inglesa- Av. - Escola 2-3 Silva Gaio - Sent. Portugal dos Pequenitos,40.2067,-8.4377,,,0,
10649,Portugal dos Pequenitos,Port. Pequenitos,Antonio Augusto Goncalves- R. - Portugal Pequenitos - Sent. Lages,40.2028,-8.4342,,,0,
10650,Escola Dom Duarte,Esc. D. Duarte,Antonio Augusto Goncalves- R. - Esc. D. Duarte - Sent. Lages,40.1997,-8.4326,,,0,
10651,Volta das Calcadas,V. Calcadas,Mendes dos Remedios- R. - Volta das Calcadas - Sent.Asc.,40.1983,-8.4367,,,0,
10652,Volta das Calcadas,V. Calcadas,Mendes dos Remedios- R. - Volta das Calcadas - Sent.Desc.,40.1988,-8.4366,,,0,
10653,Rotunda de Jerico,Rot. Jerico,Mendes dos Remedios- R. - Rot. de Jerico - Sent.Desc.,40.1974,-8.4366,,,0,
10654,Lages (Cruzamento),Lages (X),I. C. 2 - Cruz. das Lages - Sent. Banhos Secos,40.1953,-8.4319,,,0,
10655,Lages (Cruzamento),Lages (X),I. C. 2 - Cruz. das Lages - Sent. Ponte Santa Clara,40.1956,-8.4316,,,0,
10656,Lages (Cruzamento),Lages (X),E. N. 110-2 - Cruz. das Lages - Sent. Sobral Cid,40.1948,-8.4306,,,0,
10657,Lages (Cruzamento),Lages (X),E. N. 110-2 - Cruz. das Lages - Sent. Portagem,40.1943,-8.4304,,,0,
10658,Lages (Norte),Lages (N),E. N. 110-2 - Lages (Norte) - Sent. Portagem,40.1914,-8.4285,,,0,
10659,Lages (Norte),Lages (N),E. N. 110-2 - Lages (Norte) - Sent. Sobral Cid,40.1912,-8.4284,,,0,
10660,Lages (Sul),Lages (S),E. N. 110-2 - Lages (Sul) - Sent. Portagem,40.191,-8.4268,,,0,
10661,Lages (Sul),Lages (S),E. N. 110-2 - Lages (Sul) - Sent. Sobral Cid,40.1909,-8.4265,,,0,
10662,Banhos Secos (Norte),B. Secos N,I. C. 2 (Banhos Secos - Norte) - Sent. Carvalhais,40.1911,-8.4316,,,0,
10663,Quinta das Lagrimas,Qta Lagrimas,Quinta das Lagrimas - Sent. Lages,40.1973,-8.4319,,,0,
10664,Quinta das Lagrimas,Qta Lagrimas,Quinta das Lagrimas - Sent. Coimbra,40.1973,-8.4319,,,0,
10665,Banhos Secos,B. Secos,I. C. 2 (Banhos Secos) - Sent. Coimbra,40.1871,-8.4293,,,0,
10666,Banhos Secos,B. Secos,I. C. 2 (Banhos Secos) - Sent. Carvalhais,40.1878,-8.4294,,,0,
10667,Banhos Secos (Sul),B. Secos S,I. C. 2 (Banhos Secos - Cruz. Miradouro) - Sent. Coimbra,40.1847,-8.4316,,,0,
10668,Banhos Secos (Sul),B. Secos S,I. C. 2 (Banhos Secos - Cruz. Miradouro) - Sent. Carvalhais,40.185,-8.4316,,,0,
10669,Quinta da Bica,Qt. Bica,I. C. 2 (IVECO) - Sent.Carvalhais,40.1835,-8.4382,,,0,
10670,Banhos Secos (Sul),Ant.Menano 1,Antonio Menano- R. - (Banhos Secos Sul),40.186,-8.4311,,,0,
10671,Estrada de Lisboa,Est. Lisboa,Estrada Antiga de Lisboa,40.1857,-8.4385,,,0,
10672,Rua Antonio Menano,Ant.Menano 2,Antonio Menano- R. - Junto ao Cruz. c/ Est. Ant. Lisboa,40.1884,-8.4325,,,0,
10673,Banhos Secos (Norte),B. Secos N,I. C. 2 (Banhos Secos - Norte) - Sent. Coimbra,40.1894,-8.4294,,,0,
10674,Rua do Progresso,R. do Progresso,Rua do Progresso (Cruz. Carvalhais de Cima) - Sent. Assafarge,40.1684,-8.4386,,,0,
10675,Carvalhais de Baixo,Carv. Baixo,Cravalhais de Baixo - Sent. Coimbra,40.1712,-8.4384,,,0,
10676,Carvalhais de Baixo,Carv. Baixo,Carvalhais de Baixo - Sent. Assafarge,40.1713,-8.4382,,,0,
10677,Rua do Progresso,R. do Progresso,Rua do Progresso (Cruz. Carvalhais de Cima) - Sent. Coimbra ,40.1685,-8.4386,,,0,
10678,Assafarge 1,Assafarge 1,C. M. 1158 - Assafarge 1 - Sent. Coimbra,40.1603,-8.4337,,,0,
10679,Quinta da Chanforrinha,Assafarge,C. M. 1158 - Assafarge (Quinta da Chanforrinha) - Sent. Assafarge,40.1616,-8.4367,,,0,
10680,Quinta da Chanforrinha,Assafarge,C. M. 1158 - Assafarge (Quinta da Chanforrinha) - Sent. Coimbra,40.1619,-8.4369,,,0,
10681,Assafarge 3,Assafarge 3,E. N. 110-2 - Assafarge 3 - Sent. Coimbra,40.1601,-8.429,,,0,
10682,Assafarge 1,Assafarge 1,C. M. 1158 - Assafarge 1 - Sent. Marco Pereiros,40.1602,-8.4334,,,0,
10683,Assafarge (Centro),Assafarge (C),E. N. 110-2 - Assafarge (Centro) - Sent. Coimbra,40.16,-8.432,,,0,
10684,Assafarge (Centro),Assafarge (C),E. N. 110-2 - Assafarge (Centro) - Sent. Marco Pereiros,40.16,-8.4317,,,0,
10685,Assafarge 3,Assafarge 3,E. N. 110-2 - Assafarge 3 - Sent. Marco Pereiros,40.1602,-8.4281,,,0,
10686,Torre de Vilela,T. Vilela,Torre de Vilela,40.2723,-8.4235,,,0,
10687,Logo de Deus (Centro),Logo de Deus (C),Logo de Deus (Centro) - Sent. Coimbra,40.2659,-8.425,,,0,
10688,Eiras (Centro),Eiras (C),E. M. 537 - Eiras (Centro) -Sent. S. Paulo de Frades,40.2484,-8.4155,,,0,
10689,Eiras,Eiras,E. M. 537 - Eiras (Farmacia) - Sent. S. Paulo de Frades,40.249,-8.4176,,,0,
10690,Pragueira (Cruzamento),Pragueira (X),E. M.537-2 - Estrada de Eiras (Cruz. p/ Pragueira) - Sent. Santa Apolonia,40.2515,-8.422,,,0,
10691,Pragueira (Cruzamento),Pragueira (X),E. M.537-2 - Estrada de Eiras (Cruz. p/ Pragueira) - Sent. Eiras,40.2508,-8.4209,,,0,
10692,Rua das Chaves,Vilarinho(X),E. M.537-2 - Estrada de Eiras - Sent. Eiras,40.2531,-8.4241,,,0,
10693,Entre Vinhas (Centro de Saude),Entre Vinhas,Entre Vinhas- Rua (Centro de Saude) - Sent. Monte Romeiras,40.2516,-8.4255,,,0,
10694,Estrada de Eiras,Est. Eiras,Estrada de Eiras  - Sent. Sta Apolonia,40.2536,-8.4251,,,0,
10695,Rua das Chaves,Vilarinho(X),E. M. 537-2 - Estrada de Eiras (Marcopolo) - Sent. Santa Apolonia,40.2528,-8.4238,,,0,
10696,Pragueira,Pragueira,E. M. 537 (Pragueira) - Sent. Monte Romeiras,40.2486,-8.427,,,0,
10697,Pragueira,Pragueira,E. M. 537 (Pragueira) - Sent. Eiras,40.2489,-8.4266,,,0,
10698,Variante de Eiras 1,V. Eiras 1,Variante de Eiras 1 - Sent. Coimbra,40.2495,-8.4154,,,0,
10699,Variante de Eiras 2,V. Eiras 2,Variante de Eiras 2 - Sent. Coimbra,40.2507,-8.4184,,,0,
10700,Pragueira (Centro de Saude),R.Pragueira,Pragueira- Rua da (Centro de Saude) - Sent. Sta. Apolonia,40.25,-8.424,,,0,
10701,Entre Vinhas (Centro de Saude),Entre Vinhas,Entre Vinhas- Rua (Centro de Saude) - Sent. Eiras,40.2512,-8.4258,,,0,
10702,Bairro da Liberdade,B. da Liberdade,Bairro da Liberdade - Sent. Bairro de S. Miguel,40.237,-8.4255,,,0,
10703,Bairro da Liberdade,B. da Liberdade,Bairro da Liberdade - Sent. Bairro do Ingote,40.2366,-8.4255,,,0,
10704,Corrente (Sul),Corrente (S),E. M. 539 - Corrente (S) - Sent. Coselhas,40.2276,-8.4164,,,0,
10705,Corrente (Sul),Corrente (S),E. M. 539 - Corrente (S) - Sent. Lordemao,40.2278,-8.4163,,,0,
10706,Coselhas 2,Coselhas 2,E. M. 539 - Estrada de Coselhas (Gonfil) - Sent. Lordemao,40.2235,-8.4236,,,0,
10707,Coselhas 2,Coselhas 2,E. M. 539 - Estrada de Coselhas (Gonfil) - Sent. Centro,40.2232,-8.4243,,,0,
10708,Coselhas (Centro),Coselhas (C),E. M. 539 (Coselhas) - apos Ponte - Sent. Lordemao,40.2252,-8.4196,,,0,
10709,Coselhas (Centro),Coselhas (C),E. M. 539 (Coselhas) - apos Ponte - Sent. Centro,40.2248,-8.4204,,,0,
10710,Praca da Republica,Pr. Republica,Republica- Praca da - Norte 1,40.2099,-8.4193,,,0,
10711,Praca da Republica,Pr. Republica,Republica- Praca da - Norte 2,40.2098,-8.4195,,,0,
10712,Praca da Republica,Pr. Republica,Republica- Praca da - Norte 3,40.2099,-8.4196,,,0,
10713,Praca da Republica,Pr. Republica,Republica- Praca da - Norte 4,40.2101,-8.4198,,,0,
10714,Praca da Republica,Pr. Republica,Republica- Praca da - Norte 5,40.21,-8.4199,,,0,
10715,Manutencao,Manutencao,Sa da Bandeira- Av. - Manutencao - Sent. Desc.,40.2116,-8.4241,,,0,
10716,Mercado Municipal,Merc. Municipal,Sa da Bandeira- Av. - Mercado Municipal - Sent. Asc.,40.2118,-8.4249,,,0,
10717,Manutencao,Manutencao,Sa da Bandeira- Av. - Manutencao - Sent. Asc.,40.2112,-8.4235,,,0,
10718,Montarroio,Montarroio,Saragoca- R. - Montarroio - Sent. Asc.,40.2122,-8.426,,,0,
10719,Antonio Jose de Almeida 1,A. J. Almeida 1,Antonio Jose de Almeida- R. - (X) Nic. Chant. - Dir. Celas,40.2134,-8.4257,,,0,
10720,Antonio Jose de Almeida 2,A. J. Almeida 2,Antonio Jose de Almeida- R. - 2 - Dir. Celas,40.2131,-8.4228,,,0,
10721,Montes Claros,A. J. Almeida 3,Antonio Jose de Almeida- R. - Montes Claros - Dir. Celas,40.2125,-8.4195,,,0,
10722,Antonio Jose de Almeida 4,A. J. Almeida 4,Antonio Jose de Almeida- R. - Residencia Universitaria - Dir. Celas,40.2123,-8.4167,,,0,
10723,Calouste Gulbenkian,Calouste Gulbenkian,Calouste Gulbenkian- Av. - Sent. Conchada,40.2144,-8.4157,,,0,
10724,Nicolau Chanterenne 1,Nicolau Chanterenne 1,Nicolau Chanterenne- R.  - Paragem 1 - Sent. Conchada,40.2144,-8.4189,,,0,
10725,Nicolau Chanterenne 2,Nicolau Chanterenne 2,Nicolau Chanterenne- R.  - Paragem 2 - Sent. Conchada,40.214,-8.4214,,,0,
10726,Nicolau Chanterenne 3,Nicolau Chanterenne 3,Nicolau Chanterenne- R.  - Paragem 3 - Sent. Conchada,40.2138,-8.4256,,,0,
10727,Coselhas (Centro),Coselhas (C),E. M. 539 (Coselhas) - antes Ponte - Sent. Centro,40.2249,-8.421,,,0,
10728,Praca da Republica,Pr. Republica,Sa da Bandeira- Av. - Paragem 3 - Gil Vicente - Sent. Asc.,40.2098,-8.4209,,,0,
10729,Praca da Republica Gil Vicente,Pr. Republica,Sa da Bandeira- Av. - Paragem 4 - Gil Vicente - Sent. Asc.,40.2095,-8.4205,,,0,
10730,Padre Antonio Vieira 1,Padre A. Vieira 1,Padre Antonio Vieira- R. - Paragem 1 - AAC - Sent. Asc.,40.2098,-8.4217,,,0,
10731,Padre Antonio Vieira 2,Padre A. Vieira 2,Padre Antonio Vieira- R. - Paragem 2 - Sent. Asc.,40.2107,-8.425,,,0,
10732,Museu Machado de Castro,Museu M. Castro,Museu Machado de Castro,40.2092,-8.4252,,,0,
10733,Lourenco Almeida Azevedo,Lourenco A. Azevedo,Lourenco Almeida Azevedo- R. - Campo Santa Cruz - Sent. Asc.,40.2111,-8.4155,,,0,
10734,Antero de Quental,Antero de Quental,Antero de Quental- R. - Quartel General - Sent. Desc.,40.2115,-8.4172,,,0,
10735,Casa da Cultura,Casa da Cultura,Rua Pedro Monteiro - Casa da Cultura,40.2099,-8.4154,,,0,
10736,Manutencao,Manutencao,Sa da Bandeira- Av. - Travessa junto a ACIC,40.2109,-8.4224,,,0,
10737,Machado de Castro,Mach. Castro,Machado de Castro- Rua - Sent. Celas,40.2144,-8.418,,,0,
10738,Calouste Gulbenkian,Calouste Gulbenkian,Calouste Gulbenkian- Av. - Sent. Celas,40.2144,-8.4148,,,0,
10739,Antero de Quental,Antero de Quental,Antero de Quental- R. - Centro Saude Celas - Sent. Asc.,40.2108,-8.4192,,,0,
10740,Praca da Republica,Pr. Republica,Pr. da Republica - Transversal Sa Bandeira (Terminus L.26),40.210098,-8.42108,,,0,
10741,Santa Teresa,Santa Teresa,Santa Teresa - Dir. Arcos,40.2066,-8.4164,,,0,
10742,Alexandre Herculano,Alexandre Herculano,Alexandre Herculano-R.,40.2073,-8.4198,,,0,
10743,Castro Matoso,Castro Matoso,Castro Matoso- R.  - Escadas Monumentais ,40.2079,-8.4211,,,0,
10744,Universidade,Universidade ,Larga- R. - Universidade - Sent.Praca D. Dinis,40.2079,-8.4245,,,0,
10745,Arcos do Jardim,Arcos Jardim ,Julio Henriques- Al. - Jardim Botanico - Sent. S. Jose,40.2065,-8.4203,,,0,
10746,Arcos do Jardim,Arcos Jardim,Julio Henriques- Al. - Jardim Botanico - Sent. Praca da Republica,40.2063,-8.4203,,,0,
10747,Santa Teresa,Santa Teresa,Santa Teresa - Dir. Solum,40.2065,-8.4166,,,0,
10748,Julio Henriques,Julio Henriques,Julio Henriques- Al. - Jardim Escola - Sent. Praca da Republica,40.2038,-8.4196,,,0,
10749,Combatentes 1,Combatentes 1,Combatentes- R. - Ex-Grafica - Sent. S. Jose,40.203,-8.4193,,,0,
10750,Marnoco e Sousa 1,Marnoco e Sousa 1,Marnoco e Sousa- R. - Paragem 1 - Sent. Asc.,40.2039,-8.4186,,,0,
10751,Penedo da Saudade,P. Saudade,Marnoco e Sousa- R. - Paragem 2 (Penedo da Saudade) - Sent. Asc.,40.2051,-8.4156,,,0,
10752,Combatentes (ACAPO),Combatentes ,Combatentes- R. - ACAPO - Sent. Arcos do Jardim,40.203,-8.4175,,,0,
10753,Combatentes 2 (ACAPO),Combatentes 2,Combatentes- R. - ACAPO - Sent. S. Jose,40.2031,-8.4165,,,0,
10754,Rua do Brasil 3,R. Brasil 3,Brasil- R. - Paragem 3 (Alpenduradas) - Sent. Portagem ,40.2012,-8.417,,,0,
10755,Rua do Brasil 2,R. Brasil 2,Brasil- R. - Paragem 2 (Alpenduradas) - Sent. S. Jose,40.2016,-8.4161,,,0,
10756,Rua do Brasil 4,R. Brasil 4,Brasil- R. - Paragem 4 (S. Teotonio) - Sent. Portagem ,40.2002,-8.4199,,,0,
10757,Rua do Brasil 1,R. Brasil 1,Brasil- R. - Paragem 1 (S. Teotonio) - Sent. S. Jose,40.2002,-8.4196,,,0,
10758,Ladeira do Batista,Lad. Batista,Brasil- R. - Paragem 5 (Ladeira do Batista) - Sent. Portagem ,40.2006,-8.4223,,,0,
10759,Insua Bentos,Insua Bentos,Lousa- Av. - Insua dos Bentos - Sent. Rua do Brasil ,40.2037,-8.4252,,,0,
10760,Emidio Navarro,Emidio Navarro,Emidio Navarro- Av.- Alegria - Dir. Portagem,40.2047,-8.4262,,,0,
10761,Arcos do Jardim,Martim de Freitas,Martim de Freitas- Rua - Sent. Rot. Arcos do Jardim,40.2068,-8.4206,,,0,
10762,Largo de Santana,Largo Santana,Rua Pedro Monteiro - Largo de Santana,40.2069,-8.417,,,0,
10763,Parque Verde do Mondego,Av. Lousa,Lousa- Av. - Parque Verde do Mondego - Sent. Rua do Brasil ,40.2017,-8.4243,,,0,
10764,Parque Verde do Mondego,P V Mondego,Emidio Navarro- Av.- Estacao Parque - Dir. Portagem,40.2037,-8.4248,,,0,
10765,Filipe Simoes,Filipe Simoes,Filipe Simoes- R.,40.206,-8.4174,,,0,
10766,Camilo Castelo Branco,Camilo Castelo Branco,Camilo Castelo Branco- R.,40.2046,-8.4174,,,0,
10767,Ladeira das Alpenduradas 1,Ladeira das Alpenduradas,Ladeira das Alpenduradas 1,40.2028,-8.4175,,,0,
10768,Ladeira das Alpenduradas 2,Ladeira das Alpenduradas,Ladeira das Alpenduradas 2,40.2024,-8.4162,,,0,
10769,Urbano Duarte ,Urbano Duarte,Urbano Duarte- Av.- Dir. Vale das Flores,40.1948,-8.421,,,0,
10770,Urbano Duarte ,Urbano Duarte,Urbano Duarte- Av.- Dir. Portagem,40.195,-8.4208,,,0,
10771,Quinta da Nora,Qt. da Nora,Mendes Silva- Av. - Quinta da Nora - Dir. Vale das Flores,40.1928,-8.4178,,,0,
10772,Carlos Seixas 1,Carlos Seixas 1,Carlos Seixas- R. - Paragem 1 - Sent. Desc.,40.194,-8.4187,,,0,
10773,Verde Pinho 2,Verde Pinho 2,Verde Pinho- R. - Paragem 2 - Sent. Desc.,40.195,-8.4186,,,0,
10774,Verde Pinho 3,Verde Pinho 3,Verde Pinho- R. - Paragem 3 - Sent. Desc.,40.1955,-8.4194,,,0,
10775,Boavista 1,Urb. Boavista,Urbanizacao da Boavista - Sent. Polo II,40.1907,-8.4195,,,0,
10776,Boavista 1,Urb. Boavista,Urbanizacao da Boavista - Sent. Rot. Boavista,40.1908,-8.4199,,,0,
10777,Carlos Seixas 2,Carlos Seixas 2,Carlos Seixas- R. - Paragem 2 - Sent. Desc. (38),40.1956,-8.4157,,,0,
10778,Urbanizacao Quinta da Estrela,Urb. Q.ta Estrela,Arregaca (Urb. Quinta da Estrela),40.196,-8.4202,,,0,
10779,Boavista 2,Boavista,Boavista (Escola de Hotelaria) - Sent. Rot. Boavista,40.1901,-8.4186,,,0,
10780,Boavista 2,Boavista,Boavista (Escola de Hotelaria) - Sent. Polo II,40.1896,-8.4186,,,0,
10781,Volta do Salgueiral,V. do Salgueiral,E. N. 110-2 (Volta do Salgueiral) - Sent. Conraria,40.1866,-8.4258,,,0,
10782,Volta do Salgueiral,V. do Salgueiral,E. N. 110-2 (Volta do Salgueiral) - Sent. Lages,40.187,-8.4258,,,0,
10783,Miguel Bombarda,M. Bombarda,Miguel Bombarda- R. (Boavista) - Sentido Polo II,40.1871,-8.4159,,,0,
10784,Miguel Bombarda,M. Bombarda,Miguel Bombarda- R. (Boavista) - Sent. Rot. da Boavista,40.187,-8.4166,,,0,
10785,Senhora do Amparo,Sra do Amparo,E. N. 110-2 (Sra do Amparo) - Sent. Conraria,40.1827,-8.4241,,,0,
10786,Senhora do Amparo,Sra do Amparo,E. N. 110-2 (Sra do Amparo) - Sent. Lages,40.1835,-8.4244,,,0,
10787,Copeira,Copeira,E. N. 110-2 (Copeira - Cruz. 110 - 3) - Sent. Lages,40.1799,-8.422,,,0,
10788,Copeira,Copeira,E. N. 110-2 (Copeira - Cruz. 110 - 3) - Sent. Conraria,40.1803,-8.4223,,,0,
10789,Mosteiro de Sao Jorge,Most. S. Jorge,E. N. 110-2 (Univ.Vasco da Gama) - Sent. Lages,40.1765,-8.416,,,0,
10790,Mosteiro de Sao Jorge,Most. S. Jorge,E. N. 110-2 (Univ. Vasco da Gama) - Sent. Conraria,40.1764,-8.4154,,,0,
10791,Marco dos Pereiros (Centro),M. Pereiros (C),E. N. 110-3 - Marco dos Pereiros (Centro) - Sent. Assafarge,40.166,-8.4172,,,0,
10792,Santa Luzia,Casal S. Joao,Santa Luzia - Sent. Assafarge,40.1633,-8.4227,,,0,
10793,Marco dos Pereiros (Centro),M. Pereiros (C),E. N. 110-3 - Marco dos Pereiros (Centro) - Sent. Castelo Viegas,40.166,-8.4169,,,0,
10794,Santa Luzia,Casal S. Joao,Santa Luzia - Sent. Hospital S. Cid,40.1634,-8.4225,,,0,
10795,Marco dos Pereiros (Sul),M. Pereiros (S),E. N. 110-2 - Marco dos Pereiros (Sul) - Sent. Assafarge,40.1639,-8.4164,,,0,
10796,Marco dos Pereiros (Sul),M. Pereiros (S),E. N. 110-2 - Marco dos Pereiros (Sul) - Sent. Hospital S. Cid,40.1635,-8.4161,,,0,
10797,Marco dos Pereiros,M. Pereiros,E. N. 110-2 - Marco dos Pereiros - Sub-estacao - Sent. Hospital S. Cid,40.1638,-8.4203,,,0,
10798,Marco dos Pereiros,M. Pereiros,E. N. 110-2 - Marco dos Pereiros - Sub-estacao - Sent. Assafarge,40.1638,-8.4201,,,0,
10799,Rua Nova (Alto do Balancho),Alto do Balancho,Rua Nova - Alto do Balancho,40.255,-8.4045,,,0,
10800,Alto do Balancho,Alto do Balancho,Rua Fonte das Hortas (Norte) - Alto do Balancho - Sent. Eiras,40.254,-8.4057,,,0,
10801,Casais de Eiras (Centro),C. Eiras (C),E. M. 537 - Casais de Eiras - Sent. Santa Apolonia,40.249,-8.4135,,,0,
10802,Casal dos Penedos (Este),C.Penedos-Este,E. M. 537-1 - Casal dos Penedos(Cruz.Casal da Rosa)  - Sent. Eiras,40.2502,-8.404,,,0,
10803,Casais de Eiras (Centro),C. Eiras (C),E. M. 537 - Casais de Eiras - Sent. Sao Paulo de Frades,40.249,-8.4132,,,0,
10804,Casal dos Penedos (Este),C.Penedos-Este,C. M. 1143 - Casal dos Penedos (Cruz. Casal da Rosa) - Sent. Casal da Rosa,40.2504,-8.4037,,,0,
10805,Casal dos Penedos (Este),C.Penedos-Este,E. M. 537-1 - Casal dos Penedos(Cruz.Casal da Rosa)  - Sent. S. P.Frades,40.2503,-8.4035,,,0,
10806,Casais de Eiras ,C. Eiras ,E. M. 537-1 - Casais de Eiras (Cruz. p/ Brasfemes) - Sent. Santa Apolonia,40.2487,-8.4102,,,0,
10807,Casais de Eiras,C. Eiras,E. M. 537-1- Casais de Eiras (Cruz. p/ Brasfemes) - Sent. S. P. de Frades,40.249,-8.4101,,,0,
10808,Casal dos Penedos ,C. Penedos,E. M. 537-1 - Casal dos Penedos  - Sent. S. P. Frades,40.2493,-8.406,,,0,
10809,Casal dos Penedos ,C. Penedos,E. M. 537-1 - Casal dos Penedos  - Sent. Eiras,40.2491,-8.4063,,,0,
10810,Redonda,Redonda,,40.2453,-8.4106,,,0,
10811,Fonte das Hortas,Ft. das Hortas,Rua Fonte das Hortas (Sul) - Sent. Eiras,40.2514,-8.4075,,,0,
10812,Lordemao (Centro),Lordemao (C),E. M. 539 - Lordemao - Sent. Rocha Nova,40.2354,-8.409,,,0,
10813,Lordemao (Centro),Lordemao (C),E. M. 539 - Lordemao - Sent. Coselhas,40.2356,-8.4092,,,0,
10814,Redonda (Cruzamento),Redonda (X),E. M. 539 - Cruz.p/ Redonda - Sent. Rocha Nova,40.2384,-8.4079,,,0,
10815,Redonda (Cruzamento),Redonda (X),E. M. 539 - Cruz p/ Redonda - Sent. Coselhas,40.2383,-8.408,,,0,
10816,Rua dos Depositos,R. Depositos,Rua dos Depositos (Lordemao),40.2368,-8.4044,,,0,
10817,Vale Velho ,V. Velho,E. M. 539 - Cruz. do Vale Velho - Sent. Rocha Nova,40.2407,-8.405,,,0,
10818,Vale Velho (Cruzamento),V. Velho (X),C. M. 1145 - Cruz. do Vale Velho - Sent. Rocha Nova,40.2408,-8.4048,,,0,
10819,Vale Velho (Cruzamento),V. Velho (X),C. M. 1145 - Cruz. do Vale Velho - Sent. Coselhas,40.241,-8.4047,,,0,
10820,Quinta dos Carapucanos. 1,Q.Carapucanos 1,Quinta dos Carapucanos- R - 1 - Sent Redonda,40.2429,-8.4041,,,0,
10821,Quinta dos Carapucanos. 2,Q.Carapucanos 2,Quinta dos Carapucanos- R - 2 - Sent. Vale Velho,40.2427,-8.4041,,,0,
10822,Quinta dos Carapucanos. 2,Q.Carapucanos 2,Quinta dos Carapucanos- R - 2 - Sent. Redonda,40.2436,-8.4082,,,0,
10823,Quinta dos Carapucanos. 1,Q.Carapucanos 1,Quinta dos Carapucanos- R - 1 - Sent. Vale Velho,40.2435,-8.4079,,,0,
10824,Rua da Lapa,R.da Lapa,Rua da Lapa (Lordemao),40.2364,-8.4062,,,0,
10825,Quinta da Mainca,Qt. da Mainca,Quinta da Mainca (Lordemao) - Sent. Sao Romao,40.2288,-8.4089,,,0,
10826,Corrente,Corrente ,E. M. 539 - Corrente (Zona) - Sent. Coselhas,40.229,-8.4151,,,0,
10827,Corrente,Corrente ,E. M. 539 - Corrente (Zona) - Sent. Lordemao,40.2297,-8.4145,,,0,
10828,Mainca (Cruzamento),Mainca (X),Est. de S. Romao (Cruz. Rua da Mainca) - Sent. Lordemao,40.2344,-8.4037,,,0,
10829,Rua do Pinheiro,R.do Pinheiro,Rua do Pinheiro (Lordemao) - Sent. Sao Romao,40.2346,-8.4073,,,0,
10830,Lordemao (Sul),Lordemao (S),E. M. 539 - Lordemao (Sul) - Sent. Coselhas,40.233,-8.4128,,,0,
10831,Lordemao (Sul),Lordemao (S),E. M. 539 - (Lordemao (Sul) - Sent. Rocha Nova,40.2342,-8.4123,,,0,
10832,Estrada de Sao Romao,Est. S. Romao,Est. de S. Romao,40.2319,-8.4037,,,0,
10833,Mainca de Baixo 1,Mainca Baixo 1,Rua da Mainca de Baixo 1 - Sent. S. Romao,40.233,-8.406,,,0,
10834,Mainca de Baixo 2,Mainca Baixo 2,Rua da Mainca de Baixo 2 - Sent. S. Romao,40.2315,-8.407,,,0,
10835,Rua do Pinhal,R. Pinhal,Rua do Pinhal - Sent. S. Romao,40.2268,-8.4037,,,0,
10836,Corrente (Norte),Corrente (N),E. M. 539 - Corrente (Norte) - Sent. Lordemao,40.2311,-8.4131,,,0,
10837,Corrente (Norte),Corrente (N),E. M. 539 - Corrente (Norte) - Sent. Coimbra,40.2313,-8.4131,,,0,
10838,Penedo da Meditacao,Penedo Meditacao,Bissaya Barreto- Av. (Penedo da Meditacao) - Sent. Celas,40.2225,-8.4095,,,0,
10839,Penedo da Meditacao,Penedo Meditacao,Bissaya Barreto- Av. (Penedo da Meditacao) - Sent. Tovim,40.2227,-8.4093,,,0,
10840,Hospitais da Universidade (Este),H. U. C. - Este,Bissaya Barreto- Av. (Hospitais U.C.) - Sent. Celas,40.2205,-8.4098,,,0,
10841,Hospitais da Universidade (Este),H. U. C. - Este,Bissaya Barreto- Av. (Hospitais U.C.) - Sent. Tovim,40.22,-8.4096,,,0,
10842,Hospitais da Universidade (Sul),H. U. C. - Sul,Mota Pinto- Largo Prof. (Rotunda 1) - H.U.C. - Sul,40.2183,-8.4139,,,0,
10843,Instituto de Oncologia,I.P.O.,Bissaya Barreto- Av. (I.P.O.) - Sent. Celas,40.2177,-8.41,,,0,
10844,Instituto de Oncologia,I.P.O.,Bissaya Barreto- Av. (I.P.O.) - Sent. Tovim ,40.2183,-8.4097,,,0,
10845,Afranio Peixoto 1,Afranio Peixoto 1,Afranio Peixoto- R. (Paragem 1) - Sent. Ascendente,40.2216,-8.4073,,,0,
10846,Afranio Peixoto 1,Afranio Peixoto 1,Afranio Peixoto- R. (Paragem 1) - Sent. Descendente,40.2215,-8.4075,,,0,
10847,Afranio Peixoto 2,Afranio Peixoto 2,Afranio Peixoto- R. (Paragem 2 - Pinheiro Manco) - Sent. Ascendente,40.2195,-8.407,,,0,
10848,Afranio Peixoto 2,Afranio Peixoto 2,Afranio Peixoto- R. (Paragem 2 - Pinheiro Manco) - Sent. Descendente,40.2194,-8.4071,,,0,
10849,No dos Olivais,No dos Olivais,No dos Olivais  - Sent. Tovim,40.2176,-8.4053,,,0,
10850,Igreja dos Olivais,Igreja dos Olivais,Brigadeiro Correia Cardoso- R. (Igreja dos Olivais) - Sent. Celas,40.2178,-8.4039,,,0,
10851,Hospitais da Universidade (Sul),H. U. C. - Sul,Mota Pinto- Largo Prof. (Rotunda 2) - H.U.C. - Sul,40.2183,-8.4141,,,0,
10852,Rua do Acude,R. Acude,Rua do Acude - Sent. S.Romao,40.2256,-8.4062,,,0,
10853,Rua Alvaro Correia,Alvaro Correia,Alvaro Correia- Rua - Sent. S.Romao,40.2252,-8.4029,,,0,
10854,Hospitais da Universidade,H. U. C.,Hospitais da Universidade de Coimbra - Interior do Hospital (Sent. Celas),40.2197,-8.4119,,,0,
10855,No dos Olivais,No dos Olivais,Antonio Portugal- Av. - Cruz. Calcada do Gato - Sent. Celas,40.2181,-8.4054,,,0,
10856,Jose Falcao,Jose Falcao,Afonso Henriques- Av. - Escola Jose Falcao - Dir. Arcos,40.2115,-8.4133,,,0,
10857,Afonso Henriques,Afonso Henriques,Afonso Henriques- Av. - (X) Correia Teles - Dir. Arcos,40.2089,-8.4145,,,0,
10858,Celas,Celas,Cruz de Celas- Largo,40.2135,-8.4144,,,0,
10859,Celas,Celas,Augusta - R. (Cruz de Celas),40.2133,-8.4142,,,0,
10860,Augusto Rocha,Augusto Rocha,Augusto Rocha- R. (Escadas Jose Falcao),40.2123,-8.4138,,,0,
10861,Armando Goncalves,Armando Goncalves,Armando Goncalves- Al. (Escola Martim de Freitas) - Dir. Celas,40.2162,-8.4134,,,0,
10862,Armando Goncalves,Armando Goncalves,Armando Goncalves- Al. - Dir. H.U.C.,40.2152,-8.4134,,,0,
10863,B.C.G. ,B.C.G.,Bernardo de Albuquerque- R. - BCG - Dir. Celas,40.2148,-8.4115,,,0,
10864,B.C.G. ,B.C.G.,Bernardo de Albuquerque- R. - BCG - Dir. Olivais,40.2147,-8.4115,,,0,
10865,Bernardo Albuquerque,Bernardo Albuquerque,Bernardo de Albuquerque- R. - Dir. Celas,40.2156,-8.4097,,,0,
10866,Bernardo Albuquerque,Bernardo Albuquerque,Bernardo de Albuquerque- R. - Dir. Olivais,40.2158,-8.4094,,,0,
10867,Olivais,Olivais ,Dias da Silva- Av.  - Olivais - Sent. Desc.,40.2161,-8.4073,,,0,
10868,Olivais,Olivais ,Dias da Silva- Av.  - Olivais - Sent. Asc.,40.2166,-8.4068,,,0,
10869,Instituto de Oncologia,I.P.O.,Sao Teotonio- R. - Inst. de Oncologia,40.2173,-8.4103,,,0,
10870,Faculdade de Economia,Fac. Economia,Dias da Silva- Av.- Fac. Economia - Sent. Asc.,40.2154,-8.4083,,,0,
10871,Dias da Silva 3,Dias da Silva 3,Dias da Silva- Av.  - Paragem 3 - Sent. Desc.,40.2134,-8.4093,,,0,
10872,Dias da Silva 3,Dias da Silva 3,Dias da Silva- Av.  - Paragem 3 - Sent. Asc.,40.2135,-8.4094,,,0,
10873,Dias da Silva 2,Dias da Silva 2,Dias da Silva- Av.  - Paragem 2 - Sent. Desc.,40.2112,-8.4107,,,0,
10874,Dias da Silva 2,Dias da Silva 2,Dias da Silva- Av.  - Paragem 2 - Sent. Asc.,40.2112,-8.4108,,,0,
10875,Escola Eugenio de Castro,Esc. Eug.Castro,Sacadura Cabral- R. (Esc. Eugenio de Castro) - Dir. Rot. Quinta da Maia,40.2085,-8.4035,,,0,
10876,Escola Eugenio de Castro,Esc. Eug.Castro,Sacadura Cabral- R. (Esc. Eugenio de Castro) - Dir. Solum,40.2085,-8.4036,,,0,
10877,Sa Carneiro,Sa Carneiro,Sa Carneiro- R. -Sent. Desc.,40.2152,-8.4054,,,0,
10878,Sao Jeronimo,S. Jeronimo,Quinta S. Jeronimo- Urb.,40.2139,-8.4041,,,0,
10879,Pinheiro Chagas,Pinheiro Chagas,Pinheiro Chagas- R.,40.2096,-8.414,,,0,
10880,Henriques Seco,Henriques Seco,Henriques Seco- R.,40.2092,-8.4127,,,0,
10881,Benardim Ribeiro,Benardim Ribeiro,Benardim Ribeiro- R. ,40.2101,-8.409,,,0,
10882,Alberto Oliveira,Alberto Oliveira,Alberto Oliveira- R,40.2088,-8.4081,,,0,
10883,Falcao Resende,Falcao Resende,Falcao Resende- R. ,40.2097,-8.4072,,,0,
10884,Rua Gil Vicente 1,R. Gil Vicente 1,Gil Vicente- R. - Paragem 1,40.2111,-8.408,,,0,
10885,Rua Gil Vicente 2,R. Gil Vicente 2,Gil Vicente- R. - Paragem 2,40.2121,-8.408,,,0,
10886,Rua Luis de Camoes,Rua Luis de Camoes,Luis de Camoes- R.,40.2121,-8.4064,,,0,
10887,Joao Pinto Ribeiro,Joao Pinto Ribeiro,Joao Pinto Ribeiro- R.,40.2115,-8.4113,,,0,
10888,Dias da Silva 1,Dias da Silva 1,Dias da Silva- Av.  - Paragem 1 - Sent. Desc.,40.2078,-8.4137,,,0,
10889,Dias da Silva 1,Dias da Silva 1,Dias da Silva- Av.  - Paragem 1 - Sent. Asc.,40.2083,-8.4136,,,0,
10890,Marnoco e Sousa 3,Marnoco e Sousa 3,Marnoco e Sousa- R. - Paragem 3 (Carmelitas)- Sent. Asc.,40.2065,-8.4146,,,0,
10891,Miguel Torga 1,Miguel Torga 1,Miguel Torga- R. (Maternidade Daniel de Matos) - Paragem 1 - Sent. Desc.,40.2073,-8.4122,,,0,
10892,Miguel Torga 1,Miguel Torga 1,Miguel Torga- R. (Maternidade Daniel de Matos) - Paragem 1 - Sent. Asc.,40.2075,-8.4111,,,0,
10893,Miguel Torga 2,Miguel Torga 2,Miguel Torga- R.  - Paragem 2 - Sent. Asc.,40.2078,-8.407,,,0,
10894,Miguel Torga 2,Miguel Torga 2,Miguel Torga- R.  - Paragem 2 - Sent. Desc.,40.2078,-8.4076,,,0,
10895,Infanta Dona Maria,Infanta D. Maria,Infanta D. Maria- R. (Liceu D. Maria),40.2062,-8.4077,,,0,
10896,Carolina Micaellis,Carolina Michaellis,Carolina Michaellis- R. (Tamoeiro) - Sent. Asc. ,40.2059,-8.4041,,,0,
10897,Carolina Micaellis,Carolina Michaellis,Carolina Michaellis- R. (Tamoeiro) - Sent. Desc.,40.2059,-8.4042,,,0,
10898,Escola Superior de Educacao,Esc.Sup. de Educacao,D. Joao III- R. (Esc. Sup.de Educacao),40.2054,-8.4065,,,0,
10899,Avelar Brotero,Avelar Brotero,General Humberto Delgado- R. (Esc. Sec. Brotero) - Dir. Solum,40.2049,-8.41,,,0,
10900,Humberto Delgado 1,H. Delgado 1,General Humberto Delgado- R. (1) - Dir. Arcos,40.205,-8.4101,,,0,
10901,Humberto Delgado 2,H. Delgado 2,General Humberto Delgado- R. (2) - Dir. Arcos,40.2039,-8.4136,,,0,
10902,Combatentes 3,Combatentes 3,Combatentes- R. - Paragem 3 - Sent. Desc.,40.2034,-8.4131,,,0,
10903,Sao Jose,S. Jose ,Combatentes- R. - S. Jose - Sent. Desc.,40.2024,-8.4102,,,0,
10904,Sao Jose,S. Jose ,Combatentes- R. - S. Jose - Sent. Asc.,40.2026,-8.4101,,,0,
10905,Estadio Cidade de Coimbra,Estadio C. Coimbra,D. Manuel I- R. (Casa Paroquial) - Dir. Bairro,40.2024,-8.4087,,,0,
10906,Estadio Cidade de Coimbra,Estadio C. Coimbra,D. Joao III- R. - Estadio Cidade de Coimbra - Casal da Eira,40.202,-8.4071,,,0,
10907,Estadio Cidade de Coimbra,Estadio C. Coimbra,25 de Abril- Pc. - Estadio Cidade de Coimbra,40.2015,-8.4074,,,0,
10908,Rua do Brasil 2,R. Brasil 2,Brasil- R. - Paragem 2 - Dir. Portagem,40.2019,-8.4143,,,0,
10909,Rua do Brasil 3,R. Brasil 3,Brasil- R. - Paragem 3 - Dir. S. Jose,40.202,-8.4127,,,0,
10910,Rua do Brasil 1,R. Brasil 1,Brasil- R. -Paragem 1 -Dir. Portagem,40.2018,-8.4118,,,0,
10911,Calhabe,Calhabe,Brasil- R.  - Sob viaduto do Calhabe - Dir. Bandeiras,40.2012,-8.4083,,,0,
10912,Fonte da Cheira,Fonte da Cheira,Brasil- R. - Fonte da Cheira - Dir. Alto S. Joao,40.2006,-8.4059,,,0,
10913,Fonte da Cheira,Fonte da Cheira,Brasil- R. - Fonte da Cheira - Dir.Calhabe,40.2003,-8.4049,,,0,
10914,Bandeiras,Bandeiras,Brasil- R. - Bandeiras - Dir. Alto S. Joao,40.1984,-8.4026,,,0,
10915,Rua de Angola 2,R.de Angola 2,Angola- R. - Paragem 2 - Dir. Calhabe,40.1996,-8.405,,,0,
10916,Rua de Angola 1,R.de Angola 1,Angola- R. - Paragem 1 - Dir. Calhabe,40.2002,-8.4072,,,0,
10917,Rua de Angola 1,R.de Angola 1,Angola- R. - Paragem 1 - Dir. Bairro,40.2003,-8.4081,,,0,
10918,Rua da Guine,R.da Guine,Guine- R.,40.1992,-8.4062,,,0,
10919,Joao de Deus Ramos,J.Deus Ramos,Joao de Deus Ramos- Rua - Solum - Sent. Carolina Michaellis,40.2036,-8.4041,,,0,
10920,Vasco da Gama,Vasco da Gama,Vasco da Gama- R. - Dir. Vale das Flores,40.1988,-8.4084,,,0,
10921,Norton de Matos,B. Norton Matos,Vasco da Gama- R. - Bairro Norton de Matos (Horario 11C),40.1988,-8.4108,,,0,
10922,Norton de Matos,B. Norton Matos,Mouzinho de Albuquerque- R. - B. N. Matos (Horario 24T),40.1986,-8.4106,,,0,
10923,Rua de Mocambique 1,R. Mocambique 1,Mocambique- R. - Paragem 1,40.1977,-8.4076,,,0,
10924,Rua de Mocambique 2,R. Mocambique 2,Mocambique- R. - Paragem 2,40.198,-8.4041,,,0,
10925,Daniel de Matos,Daniel de Matos,Daniel de Matos- R. - Dir.Vale das Flores,40.1971,-8.412,,,0,
10926,Daniel de Matos,Daniel de Matos,Daniel de Matos- R. - Dir.Calhabe,40.197,-8.4123,,,0,
10927,Verde Pinho 1,Verde Pinho 1,Verde Pinho- R. - Paragem 1 - Sent. Desc.,40.1967,-8.415,,,0,
10928,Carlos Seixas 2,Carlos Seixas 2,Carlos Seixas- R. - Paragem 2 (Feira) - Sent. Desc.,40.1959,-8.4149,,,0,
10929,Carlos Seixas 2,Carlos Seixas 2,Carlos Seixas- R. - Paragem 2 (Feira) - Sent. Asc..,40.1959,-8.4149,,,0,
10930,Dom Pedro Cristo,D. Pedro Cristo,D. Pedro Cristo- R. (Rotunda da Feira) - Sent. Asc. ,40.1954,-8.4131,,,0,
10931,Quinta das Flores,Qt. das Flores,Mendes Silva- Av. - Quinta das Flores - Dir. Portagem,40.1943,-8.4137,,,0,
10932,Quinta das Flores,Qt. das Flores,Mendes Silva- Av. - Quinta das Flores - Dir. Vale das Flores,40.1948,-8.411,,,0,
10933,Vale das Flores,Vale das Flores,Mendes Silva- Av. - Vale das Flores (Continente) - Dir. Alto S. Joao,40.1948085,-8.4073978,,,0,
10934,Vale das Flores (Rotunda),Vale das Flores,Vale das Flores- Rot. (Continente),40.1947389,-8.4062545,,,0,
10935,Paulo Quintela 1,P.Quintela 1,Paulo Quintela- R. (Apos rot. da R. Pedro Cristo) Sent. Est. Beira,40.1956,-8.4121,,,0,
10936,Vale das Flores,Vale Flores,Paulo Quintela- R. (Vale das Flores-Meio da Rua) Sent. Est. Beira,40.1966,-8.4074,,,0,
10937,Paulo Quintela 3,P.Quintela 3,Paulo Quintela- R. (antes da Est. da Beira) Sent. Est. Beira,40.1972,-8.4035,,,0,
10938,Quinta de Marrocos,Qta. Marrocos,Quinta de Marrocos - Sent. Continente,40.1907,-8.4053,,,0,
10939,Camara Pestana,C. Pestana,Camara Pestana- R. - Sent. Continente,40.1927,-8.4068,,,0,
10940,Paulo Quintela,P.Quintela 3,Paulo Quintela- R. (antes da Est. da Beira) Sent. Centro,40.1969,-8.4043,,,0,
10941,Vale das Flores,Vale Flores,Paulo Quintela- R. (Vale das Flores-Meio da Rua) Sent. Centro,40.1965,-8.408,,,0,
10942,Parque do Vale das Flores,Parque Vale das Flores,Mendes Silva- Av. - Parque Vale das Flores  - Dir. Alto S. Joao,40.1944,-8.4132,,,0,
10943,Norton de Matos,B. Norton Matos,Mouzinho de Albuquerque- R. - B. N. Matos (Horario 40 ),40.1974,-8.4106,,,0,
10944,Universidade (Polo Dois),Polo II,Polo II da Universidade de Coimbra - Terminus L.38,40.1862,-8.413,,,0,
10945,Rebolim,R.do Rebolim,Rebolim- R. - Sent. Alto de S. Joao,40.1872,-8.4107,,,0,
10946,Pinhal de Marrocos,R. Pinhal Marrocos,Pinhal de Marrocos- R. - Sent. Alto de S. Joao,40.1901,-8.4072,,,0,
10947,Universidade (Polo Dois),Polo II,Polo II da Universidade de Coimbra - Linha no 34,40.1863,-8.413,,,0,
10948,Quinta da Cavada,Qta.Cavada,E. N.-2 (Quinta Cavada) - Sent. Lages,40.1758,-8.4072,,,0,
10949,Quinta da Cavada,Qta.Cavada,E. N.-2 (Quinta Cavada) - Sent. Conraria,40.1758,-8.4068,,,0,
10950,Quinta da Urgeirica,Qta.Urgeirica,E. N. 110-2 (Quinta da Urgeirica) - Sent. Conraria,40.1695,-8.4069,,,0,
10951,Quinta da Urgeirica,Qta.Urgeirica,E. N. 110-2 (Quinta da Urgeirica) - Sent. Castelo Viegas,40.1697,-8.407,,,0,
10952,Castelo Viegas,C.Viegas ,E. N. 110-2 (Castelo Viegas) - Sent. Conraria,40.1653,-8.4081,,,0,
10953,Castelo Viegas,C.Viegas ,E. N. 110-2 (Castelo Viegas) - Sent. Marco dos Pereiros,40.1653,-8.4082,,,0,
10954,Castelo Viegas (Centro),C.Viegas (C),E. N. 110-2 (Castelo Viegas - Centro) - Sent. Marco dos Pereiros,40.1632,-8.408,,,0,
10955,Castelo Viegas (Centro),C.Viegas (C),E. N. 110-2 (Castelo Viegas - Centro) - Sent. Conraria,40.1631,-8.4081,,,0,
10956,Castelo Viegas (Junta de Freguesia),C.Viegas (J. Freg.),E. N. 110-2 - Castelo Viegas - Junta de Freguesia - Sent. Marco Pereiros,40.1619,-8.4134,,,0,
10957,Castelo Viegas (Junta de Freguesia),C.Viegas (J. Freg.),E. N. 110-2 - Castelo Viegas - Junta de Freguesia - Sent. Hospital S. Cid,40.1618,-8.4138,,,0,
10958,Castelo Viegas (Cemitero),C.Viegas (Cemiterio),E. N. 110-2 - Castelo Viegas - Cemiterio - Sent. Hospital S. Cid,40.1623,-8.4112,,,0,
10959,Castelo Viegas (Cemitero),C.Viegas (Cemiterio),E. N. 110-2 - Castelo Viegas - Cemitero - Sent. Marco Pereiros,40.1623,-8.4114,,,0,
10960,Casal da Rosa,Casal da Rosa ,Casal da Rosa (Largo) - Terminus L. 25,40.2537,-8.3944,,,0,
10961,Paredes,Paredes,Rua Nova - Paredes,40.2582,-8.3958,,,0,
10962,Rua das Paredes 1,R. das Paredes 2,Rua das Paredes 2 - Sent. Eiras,40.2564,-8.3992,,,0,
10963,Rua das Paredes 2,R. das Paredes 3,Rua das Paredes 3 - Sent. Eiras,40.2542,-8.4036,,,0,
10964,Sao Paulo de Frades (Centro),S.P.Frades (C),Sao Paulo de Frades (Centro) - Sent. Lordemao,40.2459,-8.3937,,,0,
10965,Sao Paulo de Frades (Centro),S.P.Frades (C),Sao Paulo de Frades (Centro) - Sent. Eiras,40.2461,-8.3939,,,0,
10966,Sao Paulo de Frades (Norte),S.P.Frades (N),E. M. 537-1- (Sao Paulo de Frades - Norte) - Sent. Lordemao,40.2489,-8.3988,,,0,
10967,Sao Paulo de Frades (Norte),S.P.Frades (N),E. M. 537-1- (Sao Paulo de Frades - Norte) - Sent. Eiras,40.249,-8.3992,,,0,
10968,Vale da Luz (2),Vale Luz 2,R. 25 de Abril (Vale da Luz) - Sent. Casal da Rosa,40.2517,-8.4003,,,0,
10969,Vale da Luz,Vale Luz,C. M. 1143 (Vale da Luz) - Sent. Casal da Rosa,40.2518,-8.3962,,,0,
10970,Sao Paulo de Frades (Igreja),S.P.Frades (Igreja),Sao Paulo de Frades (Igreja) - Sent. Lordemao,40.2448,-8.3959,,,0,
10971,Sao Paulo de Frades (Igreja),S.P.Frades (Igreja),Sao Paulo de Frades (Igreja) - Sent. Eiras,40.245,-8.3957,,,0,
10972,Sao Romao (Cruzamento),S.Romao(X),C. M. 1145 (Lordemao - Cruz. Sao Romao) - Sent. Rocha Nova,40.238,-8.4034,,,0,
10973,Sao Romao (Cruzamento),S.Romao(X),C. M. 1145 (Lordemao - Cruz. Sao Romao) - Sent. Vale Velho,40.2383,-8.4038,,,0,
10974,Rocha Nova,Rocha Nova,C. M. 1145 - Estrada da Rocha Nova - Sent. Rocha Nova,40.237,-8.3989,,,0,
10975,Rocha Nova,Rocha Nova,C. M. 1145 - Estrada da Rocha Nova - Sent. Lordemao,40.2371,-8.4001,,,0,
10976,Rocha Nova (Centro),Rocha Nova (C),C. M. 1145 - (Rocha Nova - Centro) - Sent. Lordemao,40.2361,-8.3943,,,0,
10977,Rocha Nova (Centro),Rocha Nova (C),C. M. 1145 - (Rocha Nova - Centro) - Sent. Serra da Rocha,40.2361,-8.3943,,,0,
10978,Casal do Alem,Casal do Alem,C. M. 1145 - (Casal do Alem) - Sent. Serra da Rocha,40.2378,-8.3922,,,0,
10979,Casal do Alem,Casal do Alem,C. M. 1145 - (Casal do Alem) - Sent. Lordemao,40.2372,-8.3925,,,0,
10980,Sao Paulo de Frades (Sul),S. Paulo Frades (S),E. N. 539 (Sao Paulo de Frades - Sul) - Sent. Lordemao,40.2427,-8.3989,,,0,
10981,Sao Paulo de Frades (Sul),S. Paulo Frades (S),E. N. 539 (Sao Paulo de Frades - Sul) - Sent. Eiras,40.243,-8.3983,,,0,
10982,Sao Romao (Norte),Sao Romao (N),Estrada de Sao Romao (Norte) - Sent. Lordemao,40.2305,-8.4026,,,0,
10983,Igreja dos Olivais,Igreja dos Olivais,Brigadeiro Correia Cardoso- R. (Igreja dos Olivais) - Sent. Tovim,40.2178,-8.4037,,,0,
10984,Sao Romao,Sao Romao,Sao Romao - Ponto de horario na Linha no 19R,40.223,-8.4034,,,0,
10985,Sao Romao (Sul),Sao Romao (S),Estrada de Sao Romao (Sul) - Sent. Lordemao,40.2246,-8.4017,,,0,
10986,Sao Sebastiao,Sao Sebastiao,Brigadeiro Correia Cardoso- R. (Sao Sebastiao) - Sent. Olivais ,40.2171,-8.4,,,0,
10987,Sao Sebastiao,Sao Sebastiao,Brigadeiro Correia Cardoso- R. (Sao Sebastiao) - Sent. Tovim,40.2172,-8.3998,,,0,
10988,Brigadeiro Correia Cardoso,Brig. C. Cardoso,Brigadeiro Correia Cardoso- R. - Sent. Olivais ,40.2163,-8.3973,,,0,
10989,Brigadeiro Correia Cardoso,Brig. C. Cardoso,Brigadeiro Correia Cardoso- R. - Sent. Tovim,40.2164,-8.3973,,,0,
10990,Tovim,Tovim,Elisio de Moura- Av. - Paragem 1 - Tovim - (P. horario Linha No 7),40.2144,-8.3956,,,0,
10991,Tovim,Tovim,Nova- R. - Tovim - (P. horario Linha No 7T),40.214,-8.3945,,,0,
10992,Tovim de Baixo 1,Tovim de Baixo 1,Est. de Vale de Canas (Tovim 1) - Sent. Sao Sebastiao,40.2144,-8.3946,,,0,
10993,Tovim de Baixo 1,Tovim de Baixo 1,Est. de Vale de Canas (Tovim 1) - Sent. Vale de Canas,40.2145,-8.3947,,,0,
10994,Elisio de Moura 2,Elisio de Moura 2,Elisio de Moura- Av. - Paragem 2 - Sent. Desc.,40.2125,-8.3969,,,0,
10995,Elisio de Moura 2,Elisio de Moura 2,Elisio de Moura- Av. - Paragem 2 - Sent. Asc.,40.2122,-8.3956,,,0,
10996,Rotunda da Quinta da Maia,Q.Maia (Rot.),Quinta da Maia (Rotunda) ,40.2131,-8.402,,,0,
10997,Tovim do Meio 1,Tovim do Meio 1,Est. de Vale de Canas (Tovim do Meio 1) - Sent. Tovim,40.2122,-8.3911,,,0,
10998,Tovim do Meio 1,Tovim do Meio 1,Est. de Vale de Canas (Tovim do Meio 1) - Sent. Vale de Canas,40.2126,-8.3919,,,0,
10999,Quinta da Maia,Q.Maia,Luis Cunha- R. (Quinta da Maia) - Sent. Ascendente,40.2112,-8.4019,,,0,
11000,Tovim de Baixo 2,Tovim de Baixo 2,Est. de Vale de Canas (Tovim 2) - Sent. Sao Sebastiao,40.2139,-8.3924,,,0,
11001,Tovim de Baixo 2,Tovim de Baixo 2,Est. de Vale de Canas (Tovim 2) - Sent. Vale de Canas,40.2139,-8.3924,,,0,
11002,Elisio de Moura 3,Elisio de Moura 3,Elisio de Moura- Av. - Paragem 3 (Rotunda) - Sent. Desc.,40.2082,-8.3998,,,0,
11003,Elisio de Moura 3,Elisio de Moura 3,Elisio de Moura- Av. - Paragem 3 (Rotunda) - Sent. Asc.,40.2081,-8.3996,,,0,
11004,Escola Eugenio de Castro,Esc. Eug. Castro,Gago Coutinho- R. - Esc. Eugenio de Castro,40.2076,-8.4031,,,0,
11005,Fernando Namora 1,Fernando Namora 1,Fernando Namora- Av. - Paragem 1 (Rotunda) - Dir. Vale das Flores,40.2041,-8.4008,,,0,
11006,Fernando Namora 1,Fernando Namora 1,Fernando Namora- Av. - Paragem 1 (Rotunda) - Dir. Solum,40.2043,-8.4007,,,0,
11007,Fernando Namora 2,Fernando Namora 2,Fernando Namora- Av. - Paragem 2 - Dir. Vale das Flores,40.2007,-8.3992,,,0,
11008,Fernando Namora 2,Fernando Namora 2,Fernando Namora- Av. - Paragem 2 - Dir. Solum,40.2009,-8.3993,,,0,
11009,Bandeiras,Bandeiras,Brasil- R. - Bandeiras - Dir.Calhabe,40.1993,-8.4028,,,0,
11010,Chao do Bispo (Centro),Chao do Bispo (C),Chao do Bispo (Estrada dos Malheiros) - Terminus L. 26,40.2032,-8.3931,,,0,
11011,Chao do Bispo,Chao do Bispo ,Estrada dos Malheiros (Chao do Bispo) - Sent. Tovim,40.2052,-8.3918,,,0,
11012,Elisio de Moura,Elisio de Moura,Elisio de Moura- Av. - (Atrium Solum)-  Sent. Casa Branca,40.2062,-8.4009,,,0,
11013,Quinta da Lomba,Qt. da Lomba,Quinta da Lomba - Sent. Ch. do Bispo,40.2026,-8.3989,,,0,
11014,Ladeira de Chao do Bispo,Lad.Ch.Bispo,Ladeira de Chao do Bispo - Sent. Ch. do Bispo,40.204,-8.3969,,,0,
11015,Bandeiras,Bandeiras,Monsenhor Augusto Nunes Pereira-R. - Dir. Solum,40.2,-8.4032,,,0,
11016,Casa Branca,Casa Branca,Fernando Namora- Av. - Paragem 3 (Casa Branca) -Dir. Solum,40.1991,-8.3978,,,0,
11017,Casa Branca,Casa Branca,Fernando Namora- Av. - Paragem 3 (Casa Branca) -Dir. Vale das Flores,40.1989699,-8.3978677,,,0,
11018,Nogueiras,Nogueiras,E. N. 17 (Makro) - Dir. Calhabe,40.1961,-8.4027,,,0,
11019,Nogueiras,Nogueiras,E. N. 17 (Makro) - Dir. Alto de S. Joao,40.1957,-8.4027,,,0,
11020,Alto de Sao Joao (Rotunda),Alto S. Joao (Rot.),E. N. 17  - Rot. Alto S. Joao - Dir. Portela,40.1929,-8.4027,,,0,
11021,Alto de Sao Joao (Rotunda),Alto S. Joao (Rot.),E. N. 17  - Rot. Alto S. Joao - Dir. Calhabe,40.1932,-8.4026,,,0,
11022,Alto de Sao Joao (Rotunda),Alto S. Joao (Rot.),Alto de Sao Joao (Rotunda) - Dir. Vale das Flores,40.1936,-8.4018,,,0,
11023,Alto de Sao Joao (Rotunda),Alto S. Joao (Rot.),Alto de Sao Joao (Rotunda) - Dir. Quinta da Fonte,40.1936,-8.402,,,0,
11024,Quinta da Fonte,Qt. da Fonte,Fernando Namora- Av. - Paragem 4 (Quinta da Fonte) -Dir. Solum,40.1953,-8.3978,,,0,
11025,Quinta da Fonte,Qt. da Fonte,Fernando Namora- Av. - Paragem 4 (Quinta da Fonte) -Dir. Vale das Flores,40.1956,-8.3976,,,0,
11026,Quinta da Fonte (Rotunda),Qt. da Fonte (Rot.),Quinta da Fonte (Rotunda) - Dir. Solum,40.1938,-8.3981,,,0,
11027,Alto de Sao Joao ,Alto S. Joao ,E. N. 17 - Alto de S. Joao (Areeiro) - Dir. Calhabe ,40.1908,-8.4019,,,0,
11028,Alto de Sao Joao ,Alto S. Joao ,E. N. 17 - Alto de S. Joao (Areeiro) - Dir. Portela,40.1905,-8.4017,,,0,
11029,Urbanizacao Quinta da Romeira 1,Urb. Qt. Romeira 1,Urbanizacao Quinta da Romeira 1 - Sent. Asc.,40.1937,-8.3969,,,0,
11030,Urbanizacao Quinta da Romeira 2,Urb. Qt. Romeira 2,Urbanizacao Quinta da Romeira 2 - Sent. Asc.,40.1953,-8.3934,,,0,
11031,Urbanizacao Quinta da Romeira 3,Urb. Qt. Romeira 3,Urbanizacao Quinta da Romeira 3,40.1936,-8.3942,,,0,
11032,Urbanizacao Quinta da Romeira 4,Urb. Qt. Romeira 4,Urbanizacao Quinta da Romeira 4,40.1946,-8.3924,,,0,
11033,Urbanizacao Quinta da Romeira 2,Urb. Qt. Romeira 2,Urbanizacao Quinta da Romeira 2 - Sent. Desc.,40.1959,-8.3934,,,0,
11034,Urbanizacao Quinta da Romeira 1,Urb. Qt. Romeira 1,Urbanizacao Quinta da Romeira 1 - Sent. Desc.,40.1936,-8.397,,,0,
11035,Areeiro,Areeiro,Areeiro - Capela -Sent. Quinta da Fonte,40.191,-8.3971,,,0,
11036,Quinta da Fonte (Rotunda),Qt. da Fonte (Rot.),Quinta da Fonte-Sul (Rotunda) - Sent. Est. Beira,40.193,-8.398,,,0,
11037,Portela,Portela,E. N. 17 (Portela do Mondego) - Sent. Ponte da Portela,40.1849,-8.3986,,,0,
11038,Escola de Ceira,Escola de Ceira ,C. M. 1151 (Escola B. 2+3 de Ceira - Terminus L. 23),40.184,-8.3934,,,0,
11039,Portela (Rotunda),Portela (Rot.),E. N. 17 - Portela do Mondego (Rotunda) - Sent. Alto S. Joao,40.1853,-8.3972,,,0,
11040,Portela (Norte),Portela (N),E. N. 17 (Portela - Norte) - Sent. Alto S. Joao,40.1858,-8.3995,,,0,
11041,Torres do Mondego (Proximidades),EN110-Km17-5,E. N. 110 - Barca - Sent. Portela,40.189,-8.3925,,,0,
11042,Torres do Mondego (Proximidades),EN110-Km17-5,E. N. 110 - Sent. Torres do Mondego,40.1901,-8.3916,,,0,
11043,Parque de Campismo,Pq. Campismo,Areeiro - Parque de Campismo - Sent. Areeiro,40.1893,-8.3995,,,0,
11044,Areeiro (Escola),Escola Areeiro,Areeiro - Escola - Sent. Areeiro,40.1903,-8.3989,,,0,
11045,Ceira (Centro),Ceira (C),R. de Tomar -Ceira (Centro) - Sent. Conraria,40.1746,-8.3919,,,0,
11046,Ceira (Centro),Ceira (C),Via Central de Ceira - Sent. Coimbra,40.1746,-8.3919,,,0,
11047,Conraria,Conraria,Conraria - Sent. Ceira,40.1737,-8.3946,,,0,
11048,Conraria (Centro),Conraria (C),Conraria (Centro) - Sent. Hospital Sobral Cid,40.1764,-8.3967,,,0,
11049,Hospital de Sobral Cid,S. Cid (H),E. N. 110-2 (H. Sobral Cid - Terminus L. 10/18) - Sent. Lages,40.1752,-8.4028,,,0,
11050,Hospital de Sobral Cid,S. Cid (H),E. N. 110-2 (H. Sobral Cid) - Sent. M. Pereiros,40.1753,-8.403,,,0,
11051,Conraria (Centro),Conraria (C),Conraria (Centro) - Sent. Ceira,40.1762,-8.3967,,,0,
11052,Conraria,Conraria,Conraria - Sent. Hospital S. Cid,40.1742,-8.3949,,,0,
11053,Carvalhosas (Cruzamento),Carvalhosas (X),E. N. 17 (Cruz. p/ Carvalhosas) - Sent. Ceira,40.1794,-8.3918,,,0,
11054,Carvalhosas (Cruzamento),Carvalhosas (X),E. N. 17 (Cruz. p/ Carvalhosas) - Sent. Portela,40.1796,-8.392,,,0,
11055,Ceira (Sul) ,Ceira (S),Ceira (Antes ponte sobre a Linha da CP) - Sent. Conraria,40.1716,-8.3933,,,0,
11056,Ceira (Sul) ,Ceira (S),Ceira (Depois ponte sobre a Linha da CP) - Sent. Portela,40.172,-8.3931,,,0,
11057,Alto da Rocha Nova,Alto R. Nova,C. M. 1145 - Alto da Rocha Nova - Sent. Serra da Rocha,40.2379,-8.391,,,0,
11058,Tovim do Meio 2,Tovim do Meio 2,E. M. 536 (Cruz. Est.dos Malheiros ) - Sent. Vale de Canas,40.212,-8.3897,,,0,
11059,Tovim do Meio 2,Tovim do Meio 2,E. M. 536 (Cruz.Est. dos Malheiros) - Sent. Sao Sebatiao,40.212,-8.3896,,,0,
11060,Tovim de Cima 1,Tovim de Cima 1,E. M. 536 (Tovim de Cima - Paragem 1) - Sent.Vale de Canas,40.2131,-8.3872,,,0,
11061,Tovim de Cima 1,Tovim de Cima 1,E. M. 536 (Tovim de Cima - Paragem 1) - Sent. Sao Sebastiao,40.213,-8.386,,,0,
11062,Tovim de Cima 2,Tovim de Cima 2,E. M. 536 (Tovim de Cima - Paragem 2) - Sent. Vale de Canas,40.2112,-8.3848,,,0,
11063,Tovim de Cima 2,Tovim de Cima 2,E. M. 536 (Tovim de Cima - Paragem 2) - Sent. Sao Sebastiao,40.2109,-8.3849,,,0,
11064,Tovim de Cima 3,Tovim de Cima 3,E. M. 536 (Tovim de Cima) - Sent. Sao Sebastiao,40.2131,-8.3842,,,0,
11065,Tovim de Cima 3,Tovim de Cima 3,E. M. 536 (Tovim de Cima) - Sent. Vale de Canas,40.2129,-8.3845,,,0,
11066,Picoto dos Barbados,Picoto dos Barbados,E. M. 536 (Picoto dos Barbados) - Sent. Vale de Canas,40.2122,-8.3836,,,0,
11067,Picoto dos Barbados,Picoto dos Barbados,E. M. 536 (Picoto dos Barbados) - Sent. Sao Sebastiao,40.2122,-8.3835,,,0,
11068,Daniel Rodrigues,Daniel Rodrigues,Daniel Rodrigues- R. - Sent. Olivais,40.2102,-8.3901,,,0,
11069,Malheiros,Malheiros,Malheiros - Sent. Olivais,40.2077,-8.3902,,,0,
11070,Torres do Mondego (Sul),Torres Mondego (S),E. N. 110 (Torres do Mondego - Sul) - Sent. Casal da Misarela,40.1929,-8.3846,,,0,
11071,Torres do Mondego (Centro),Torres Mondego (C),E. N. 110 (Torres do Mondego - Centro) - Sent. Portela,40.195,-8.381,,,0,
11072,Torres do Mondego (Sul),Torres Mondego (S),E. N. 110 (Torres do Mondego - Sul) - Sent. Portela,40.193,-8.3845,,,0,
11073,Estrada das Carvalhosas,Estr. Carvalhosas,C. M. 1151 Estrada das Carvalhosas (Rotunda) - Sent. Coimbra,40.1806,-8.3922,,,0,
11074,Golpe,Golpe ,C. M. 1146 (Golpe)- Sent. Carapinheira,40.2461,-8.3698,,,0,
11075,Golpe,Golpe ,C. M. 1146 (Golpe)- Sent. Rocha Velha,40.2461,-8.3699,,,0,
11076,Golpe (Norte),Golpe (N),C. M. 1146 (Golpe - Norte) - Sent. Carapinheira ,40.2494,-8.3689,,,0,
11077,Golpe (Norte),Golpe (N),C. M. 1146 (Golpe - Norte) - Sent. Rocha Velha ,40.2495,-8.3691,,,0,
11078,Rocha Velha,Rocha Velha,C. M. 1146 (Rocha Velha - Terminus L. 16G),40.2499,-8.372,,,0,
11079,Cova do Ouro (Cruzamento),Cova do Ouro (X),E. M. 536 (Cova do Ouro - Paragem 2 - Cruz.) - Sent. Carapinheira,40.2284,-8.3749,,,0,
11080,Cova do Ouro (Cruzamento),Cova do Ouro (X),E. M. 536 (Cova do Ouro - Paragem 2 - Cruz.) - Sent. Vale de Canas,40.2283,-8.3744,,,0,
11081,Cova do Ouro 3,Cova do Ouro 3,E. M. 536 (Cova do Ouro - Paragem 3) - Sent. Carapinheira,40.2289,-8.3731,,,0,
11082,Cova do Ouro 3,Cova do Ouro 3,E. M. 536 (Cova do Ouro - Paragem 3) - Sent. Vale de Canas,40.2289,-8.3731,,,0,
11083,Dianteiro 1,Dianteiro 1,E. M. 536 (Dianteiro - Cemiterio - Paragem 1) - Sent.Carapinheira,40.2317,-8.3713,,,0,
11084,Dianteiro 1,Dianteiro 1,E. M. 536 (Dianteiro - Cemiterio - Paragem 1) - Sent. Vale de Canas,40.2328,-8.3706,,,0,
11085,Dianteiro 2,Dianteiro 2,E. M. 536 (Dianteiro - Paragem 2) «escola» - Sent.Carapinheira,40.2342,-8.3678,,,0,
11086,Dianteiro 2,Dianteiro 2,E. M. 536 (Dianteiro - Paragem 2) «escola»- Sent. Vale de Canas,40.2348,-8.3669,,,0,
11087,Serra da Rocha,Serra da Rocha,C. M. 1145 (Serra da Rocha) - Sent. Rocha Nova,40.2347,-8.3777,,,0,
11088,Serra da Rocha,Serra da Rocha,C. M. 1145 (Serra da Rocha) - Sent. Cova do Ouro,40.2352,-8.378,,,0,
11089,Vale de Fontinha,Vale Fontinha,C. M. 1145 (Vale de Fontinha) - Sent. Rocha Nova,40.2301,-8.3764,,,0,
11090,Vale de Fontinha,Vale Fontinha,C. M. 1145 (Vale de Fontinha) - Sent. Cova do Ouro,40.2299,-8.3762,,,0,
11091,Casal do Lobo (Centro),Casal do Lobo (C),E. M. 536 (Casal do Lobo - Paragem 2 - Centro) - Sent. Vale de Canas,40.2174,-8.3745,,,0,
11092,Casal do Lobo (Centro),Casal do Lobo (C),E. M. 536 (Casal do Lobo - Paragem 2 - Centro) - Sent. Carapinheira,40.2172,-8.3745,,,0,
11093,Casal do Lobo 3,Casal do Lobo 3,E. M. 536 (Casal do Lobo - Paragem 3) - Sent. Vale de Canas,40.2201,-8.3736,,,0,
11094,Casal do Lobo 3,Casal do Lobo 3,E. M. 536 (Casal do Lobo - Paragem 3) - Sent. Carapinheira,40.2193,-8.3742,,,0,
11095,Casal do Lobo 4,Casal do Lobo 4,E. M. 536 (Casal do Lobo - Paragem 4) - Sent. Vale de Canas,40.2242,-8.3758,,,0,
11096,Casal do Lobo 4,Casal do Lobo 4,E. M. 536 (Casal do Lobo - Paragem 4) - Sent. Carapinheira,40.2229,-8.3754,,,0,
11097,Cova do Ouro 1,Cova do Ouro 1,E. M. 536 (Cova do Ouro - Paragem 1) - Sent. Vale de Canas,40.2267,-8.3763,,,0,
11098,Cova do Ouro 1,Cova do Ouro 1,E. M. 536 (Cova do Ouro - Paragem 1) - Sent. Carapinheira,40.2263,-8.3764,,,0,
11099,Mata de Vale de Canas,V. de Canas,E. M. 536 (Vale de Canas - Mata Nacional) - Sent. Carapinheira,40.2103,-8.3795,,,0,
11100,Mata de Vale de Canas,V. de Canas,E. M.536 (Vale de Canas - Mata Nacional) - Sent. Tovim,40.2103,-8.3791,,,0,
11101,Vale de Canas (Norte),V. de Canas (N),E. M.536 (Vale de Canas - Norte) - Sent. Carapinheira,40.2125,-8.3772,,,0,
11102,Vale de Canas (Norte),V. de Canas (N),E. M.536 (Vale de Canas - Norte) - Sent. Tovim,40.2125,-8.3771,,,0,
11103,Casal do Lobo 1,Casal do Lobo 1,E. M. 536 (Casal do Lobo - Paragem 1) - Sent. Carapinheira,40.2148,-8.374,,,0,
11104,Casal do Lobo 1,Casal do Lobo 1,E. M. 536 (Casal do Lobo - Paragem 1) - Sent. Vale de Canas,40.2145,-8.3743,,,0,
11105,Casal da Misarela (Cruzamento),C. Misarela (X),E. N. 110 (Cruz. p/ Vale de Canas) - Sent. Casal da Misarela,40.2001,-8.3705,,,0,
11106,Casal da Misarela (Cruzamento),C. Misarela (X),E. N. 110 (Cruz. p/ Vale de Canas) - Sent. Torres do Mondego,40.2001,-8.3706,,,0,
11107,Torres do Mondego (Centro),T. Mondego (C),E. N. 110-2 (Torres do Mondego - Centro) - Sent. Casal da Misarela,40.1959,-8.3792,,,0,
11108,Torres do Mondego (Norte),T. Mondego (N),E. N. 110 (Torres do Mondego - Norte) - Sent. Casal da Misarela,40.1978,-8.3769,,,0,
11109,Torres do Mondego (Norte),T. Mondego (N),E. N. 110 (Torres do Mondego - Norte) - Sent. Portela,40.1973,-8.3778,,,0,
11110,Golpe (Cruzamento),Golpe (X),E. M. 536 (Cruz. do Golpe) - Sent. Carapinheira,40.2457,-8.3636,,,0,
11111,Golpe (Cruzamento),Golpe (X),C. M. 1146 (Cruz. do Golpe) - Sent. Rocha Velha,40.2459,-8.3639,,,0,
11112,Carapinheira,Carapinheira ,E. M. 536 (Carapinheira da Serra) - Sent. Aveleira,40.2401,-8.3632,,,0,
11113,Carapinheira,Carapinheira ,E. M. 536 (Carapinheira da Serra) - Sent. Vale de Canas,40.2406,-8.3632,,,0,
11114,Dianteiro (Centro),Dianteiro (C),E. M. 536 (Dianteiro - Paragem - Centro) - Sent. Carapinheira,40.2372,-8.3629,,,0,
11115,Dianteiro (Centro),Dianteiro (C),E. M. 536 (Dianteiro - Paragem - Centro) - Sent. Vale de Canas,40.2376,-8.3629,,,0,
11116,Dianteiro 4,Dianteiro 4,E. M. 536 (Dianteiro - Paragem 4) «Centro»- Sent. Carapinheira,40.2358,-8.364,,,0,
11117,Dianteiro 4,Dianteiro 4,E. M. 536 (Dianteiro - Paragem 4) «Centro»- Sent. Vale de Canas,40.2362,-8.3636,,,0,
11118,Carapinheira Norte,Carap. Norte,E. M. 536 (Carapinheira da Serra - Urb. Valbon) - Sent. Aveleira,40.2426,-8.3626,,,0,
11119,Carapinheira Norte,Carap. Norte,E. M. 536 (Carapinheira da Serra - Urb. Valbon) - Sent. Vale de Canas,40.2426,-8.3625,,,0,
11120,Dianteiro 3,Dianteiro 3,E. M. 536 (Dianteiro - Paragem 3) - Sent. Carapinheira,40.2351,-8.3662,,,0,
11121,Dianteiro 3,Dianteiro 3,E. M. 536 (Dianteiro - Paragem 3) - Sent. Vale de Canas,40.2355,-8.3655,,,0,
11122,Casal da Misarela (Centro),C. Misarela (C),E. M. 110 (Casal da Misarela - Centro) - Sent. Penacova,40.2056,-8.3637,,,0,
11123,Casal da Misarela (Centro),C. Misarela (C),E. M. 110 (Casal da Misarela - Centro) - Sent. Coimbra,40.2056,-8.3641,,,0,
11124,Casal da Misarela (Sul),C. Misarela (S),E. M. 110 (Casal da Misarela - Sul) - Sent. Casal da Misarela,40.2029,-8.3673,,,0,
11125,Casal da Misarela (Sul),C. Misarela (S),E. M. 110 (Casal da Misarela - Sul) - Sent. Torres do Mondego,40.2024,-8.3678,,,0,
11126,Casal da Misarela (Norte),C. Misarela (N),E. M. 110 (Casal da Misarela - Norte) - Terminus L. 9,40.2074,-8.3596,,,0,
11127,Rua Combatentes 2,R.Combatentes 2,Rua Combatentes (2)- Vila Pouca - Sent. Taveiro,40.1916,-8.5265,,,0,
11128,Rua Combatentes 2,R.Combatentes 2,Rua Combatentes (2)- Vila Pouca - Sent. Ameal,40.1915,-8.5266,,,0,
11129,Casais (Apeadeiro),Casais -  Apeadeiro ,Rua Central - Apeadeiro dos Casais - Sent. Taveiro,40.2049,-8.4846,,,0,
11130,Casais,Casais,Variante Nova - Casais -Sent. Cemiterio,40.2031,-8.4849,,,0,
11131,Casais (Apeadeiro),Casais -  Apeadeiro ,Rua Central - Apeadeiro dos Casais Sent. Coimbra,40.2049,-8.4845,,,0,
11132,Rua das Paredes 1,R. das Paredes 1,Rua das Paredes 1 - Sent. Eiras,40.2581,-8.3972,,,0,
11133,Rua 25 de Abril,Rua 25 Abril,Rua 25 Abril - Vale da Luz - Sent. Casal da Rosa,40.2526,-8.395,,,0,
11134,Rua Antonio Jardim (1),R. Antonio Jardim (1),Rua Antonio Jardim (1),40.2167,-8.3991,,,0,
11135,Rua Antonio Jardim (2),R. Antonio Jardim (2),Rua Antonio Jardim (2),40.2149,-8.3979,,,0,
11136,Rua Antonio Jardim (3),R. Antonio Jardim (3),Rua Antonio Jardim (3),40.2127,-8.399,,,0,
11137,Rua Antonio Jardim (4),R. Antonio Jardim (4),Rua Antonio Jardim (4),40.2106,-8.3985,,,0,
11138,Joao de Deus Ramos,J.Deus Ramos,Rua Joao de Deus Ramos,40.2037,-8.4043,,,0,
11139,Rua da Mata,Rua da Mata,Rua da Mata - sent. Asc.,40.2119,-8.3773,,,0,
11140,Vale de Canas,Vale de Canas,Rua de S. Bento - cz. trav. Vale do Melo,40.2087,-8.372,,,0,
11141,Rua Eladio Alle Alvarez (1) ,R. Eladio Alle Alvarez,Rua Eladio Alle Alvarez - 1 ,40.2115,-8.3803,,,0,
11142,Rua Eladio Alle Alvarez (1) ,R. Eladio Alle Alvarez,Rua Eladio Alle Alvarez - 2,40.2133,-8.38123,,,0,
11143,Rua Antonio Neves da Costa (1),R. Ant. Neves da Costa,Rua Antonio Neves da Costa - 1,40.2166,-8.3846,,,0,
11144,Rua Antonio Neves da Costa (1),R. Ant. Neves da Costa,Rua Antonio Neves da Costa - 2,40.2157,-8.3862,,,0,
11145,Coselhas (1),Coselhas 1,Estrada de Coselhas,40.222,-8.4263,,,0,
11146,Variante de Eiras (1),Variante Eiras 1,Variante de Eiras 1 - Sent. S. Paulo de Frades,40.2495,-8.4153,,,0,
11147,Oureca,R. da Oureca,Rua da Oureca,40.2513,-8.4161,,,0,
11148,Tojeira,R. Tojeira ,Rua da Tojeira,40.2527,-8.4174,,,0,
11149,Planalto de Santa Clara,Forum - Bombas,Jose Bonifacio A. Silva- Av. (Via do Planalto) - Sent. Centro Saude Sta Clara,40.2097,-8.4447,,,0,
11150,Planalto de Santa Clara,Forum - Bombas,Jose Bonifacio A. Silva- Av. (Via do Planalto) - Sent. Pollo II,40.2097,-8.4441,,,0,
11151,Santa Apolonia Centro,Sta Apolonia,R. Jose Leite de Vasconcelos - Sta Apolonia - Sent. Ponte Eiras,40.2536,-8.4354,,,0,
11152,Largo da Portagem,Largo da Portagem,,40.2073,-8.4293,,,0,
11153,Rua Visconde da Luz,Rua Visconde da Luz,Rua Visconde da Luz - Escadas de S. Tiago,40.2092,-8.4291,,,0,
11154,Rua Jose Alberto dos Reis,Rua Jose Alberto dos Reis,,40.2166,-8.4092,,,0,
11155,Rua o Conimbricence 2,R. Conimbricence 2,R. O Conimbricence 2 - sent. Polo II,40.1829,-8.4071,,,0,
11156,Largo Poco do Mato,Largo Poco do Mato,Largo Poco do Mato - Sent. Carvalhais,40.166,-8.432,,,0,
11157,Largo Poco do Mato,Largo Poco do Mato,Largo Poco do Mato - Sent. M. dos Pereiros,40.1658,-8.432,,,0,
11158,Casal de Sao Joao,Casal de S. Joao,Casal de S. Joao - Sent. Carvalhais,40.164,-8.4264,,,0,
11159,Casal de Sao Joao,Casal de S. Joao,Casal de S. Joao - Sent. M. dos Pereiros,40.1641,-8.4265,,,0,
11160,Santa Luzia,Santa Luzia,Santa Luzia - Sent. Carvalhais,40.1638,-8.4232,,,0,
11161,Santa Luzia,Santa Luzia,Santa Luzia - Sent. M. dos Pereiros,40.1638,-8.4229,,,0,
11162,Marco dos Pereiros (Centro),M. Pereiros (C),Marco dos Pereiros (Centro - Rua da Portela) - Sent. Coimbra,40.1654,-8.4177,,,0,
11163,Marco dos Pereiros (Centro),M. Pereiros (C),Marco dos Pereiros (Centro - Rua da Portela) - Sent. Almalagues,40.1647,-8.4182,,,0,
11164,Rua da Portela 1,Estr. da Portela - 1,Rua da Portela - 1 - Sent. Coimbra,40.1611,-8.419,,,0,
11165,Rua da Portela 1,Estr. da Portela - 1,Rua da Portela - 1 - Sent. Almalagues,40.1613,-8.4197,,,0,
11166,Rua da Portela 2,Estr. da Portela - 2,Rua da Portela - 2 - Sent. Coimbra,40.1587,-8.418,,,0,
11167,Rua da Portela 2,Estr. da Portela - 2,Rua da Portela - 2 - Sent. Almalagues,40.159,-8.4178,,,0,
11168,Rua da Portela 3,Estr. da Portela - 3,Rua da Portela - 3 - Sent. Coimbra,40.1521,-8.4156,,,0,
11169,Rua da Portela 3,Estr. da Portela - 3,Rua da Portela - 3 - Sent. Almalagues,40.1525,-8.4157,,,0,
11170,Portela do Gato,Portela do Gato,Portela do Gato - Sent. Coimbra,40.1483,-8.4121,,,0,
11171,Portela do Gato,Portela do Gato,Portela do Gato - Sent. Almalagues,40.1481,-8.4119,,,0,
11172,Rua do Meio,Rua do Meio,Rua do Meio - Sent. Coimbra,40.1469,-8.4107,,,0,
11173,Rua do Meio,Rua do Meio,Rua do Meio - Sent. Almalagues,40.1463,-8.4109,,,0,
11174,Cestas,Cestas,Rua da Oliveira - Cestas - Sent. Coimbra,40.1427,-8.4086,,,0,
11175,Cestas,Cestas,Rua da Oliveira - Cestas - Sent. Almalagues,40.1428,-8.4086,,,0,
11176,Outeiro de Bera,Out. de Bera,Outeiro de Bera - Sent. Coimbra,40.1402,-8.4051,,,0,
11177,Outeiro de Bera,Out. de Bera,Outeiro de Bera - Sent. Almalagues,40.14,-8.4049,,,0,
11178,Rua dos Lagos 1,R. dos Lagos 1,Rua dos Lagos - 1 - Sent. Coimbra,40.1364,-8.4023,,,0,
11179,Rua dos Lagos 1,R. dos Lagos 1,Rua dos Lagos - 1 - Sent. Almalagues,40.1368,-8.4026,,,0,
11180,Rua dos Lagos 2,R. dos Lagos 2,Rua dos Lagos - 2 - Sent. Coimbra,40.1362,-8.3976,,,0,
11181,Rua dos Lagos 2,R. dos Lagos 2,Rua dos Lagos - 2 - Sent. Almalagues,40.1362,-8.3972,,,0,
11182,Rua da Estrada Nova,R. Est. Nova,Rua da Estr. Nova 1- Sent. Coimbra,40.1342,-8.3936,,,0,
11183,Rua da Estrada Nova,R. Est. Nova,Rua da Estr. Nova 1 - Sent. Almalagues (centro),40.1342,-8.3933,,,0,
11184,Rua do Santo Cristo,R. S.to Cristo,Rua do Santo Cristo - Sent. Coimbra,40.1353,-8.392,,,0,
11185,Rua dos Pereiros,R. dos Pereiros,Rua dos Pereiros - Sent. Almalagues (centro),40.1354,-8.3915,,,0,
11186,Rua de Santiago,R. de Santiago,Rua de Santiago - Sent. Almalagues (centro),40.1352,-8.3902,,,0,
11187,Rua de Santiago,R. de Santiago,Rua de Santiago - Sent. Coimbra,40.1352,-8.3902,,,0,
11188,Largo do Terreiro,Almalagues,Largo do Terreiro - Almalagues (centro),40.1301,-8.3912,,,0,
11189,Quinta da Nora,Qt. da Nora,Mendes Silva- Av. - Quinta da Nora - Dir. Portagem,40.193,-8.419,,,0,
11190,Mourelos,Mourelos,Mourelos - sent. Granja de Anca,40.2759,-8.4869,,,0,
11191,Fonte da Portela,F.te Portela,Fonte da Portela - Mourelos,40.2747,-8.4902,,,0,
11192,Rua de Sao Bento (Cruzamento),Rua de Sao Bento 1,Rua de Sao Bento - Cz. E.N. 110,40.2001,-8.3706,,,0,
11193,Rua 25 Abril 1,Rua 25 Abril - cz,Rua 25 Abril 1 - Vale de Canas - Sent. Olivais,40.207,-8.372,,,0,
11194,Rua de Sao Bento 1,Rua de Sao Bento 1,,40.2023,-8.3697,,,0,
11195,Rua 25 Abril 2,Rua 25 Abril 2,Rua 25 Abril 2 - Vale de Canas - Sent. Olivais,40.2059,-8.3715,,,0,
11196,Sargento Mor,Sargento Mor,Rua do Lagar  - Sargento Mor,40.2883,-8.4464,,,0,
11197,Sargento Mor (Sul),Sarg. Mor (S),Estrada do Lameirao - sent. Adoes,40.2872,-8.4496,,,0,
11198,Rua da Estrada Nova,R. Est. Nova,Rua da Estr. Nova 2 - Sent. Coimbra,40.1352,-8.3951,,,0,
11199,Rua da Estrada Nova,R. Est. Nova,Rua da Estr. Nova 2 - Sent. Almalagues (centro),40.1349,-8.3947,,,0,
11200,Avenida Afonso Romao,Av.Afonso Romao,Av.Afonso Romao - Polo III,40.2213,-8.4168,,,0,
11201,Rua de Baixo,R. de Baixo,Rua de Baixo - Reveles - sent. Vila Pouca,40.1885,-8.5147,,,0,
11202,Rua de Baixo,R. de Baixo,Rua de Baixo - Reveles - sent. Taveiro,40.1886,-8.5149,,,0,
11203,Bairro das Fachadas (Cruzamento),Cz. B.ro Fachadas,Est. Principal do Vale Velho - Cz. Bairro das Fachadas - sent. Lordemao,40.242215,-8.402118,,,0,
11204,Rua da Almaziva,R. da Almaziva (S.P.Frades),Rua da Almaziva (S.P.Frades) - sent. Eiras,40.24743,-8.395618,,,0,
11205,Rua da Almaziva,R. da Almaziva (S.P.Frades),Rua da Almaziva (S.P.Frades) - sent. Lordemao,40.247145,-8.395242,,,0,
11206,Rua 25 de Abril,R. 25 de Abril - Cova Ouro,Rua 25 de Abril - Cova do Ouro - sent. Dianteiro,40.230842,-8.372515,,,0,
11207,Rua 25 de Abril,R. 25 de Abril - Cova Ouro,Rua 25 de Abril - Cova do Ouro - sent. Coimbra,40.230673,-8.372718,,,0,
11208,Rua do Regatinho,Rua do Regatinho,Rua do Regatinho - cz R.do Cabeco - sent. Golpe,40.2465,-8.3684,,,0,
11209,Rua do Regatinho,Rua do Regatinho,Rua do Regatinho - cz R.do Cabeco - sent. Carapinheira,40.2467,-8.3682,,,0,
11210,Estrada da Beira (Ceira),Estrada da Beira,Estrada da Beira - cz R. dos Correios - sent. Coimbra,40.1733,-8.3904,,,0,
11211,Rua Abilio Fernandes,R. Abilio Fernandes,R. Abilio Fernandes - sent. Polo II,40.1854,-8.4116,,,0,
11212,Rua Quinta da Portela,R. Quinta da Portela,R. Quinta da Portela - sent. Polo II,40.1864,-8.4042,,,0,
11213,Parque Industrial de Taveiro (1),Parque Industrial Taveiro,Parque Industrial Taveiro 1,40.1982,-8.5127,,,0,
11214,Parque Industrial de Taveiro (2),Parque Industrial Taveiro,Parque Industrial Taveiro 2,40.1963,-8.5093,,,0,
11215,Hospital Pediatrico,Hosp. Pediatrico,Hosp. Pediatrico - Cir. Interna,40.2227,-8.4145,,,0,
11216,Rua de Condeixa Cemiterio,Arzila - Cemiterio,Rua de Condeixa - Cemiterio - sent. Lameira,40.1809,-8.548,,,0,
11217,Rua de Condeixa Cemiterio,Arzila - Cemiterio,Rua de Condeixa - Cemiterio - sent. Arzila,40.1811,-8.5484,,,0,
11218,Portagem,Portagem,Emidio Navarro- Av. - Portagem 8 - Dir. Arnado (43T),40.2076,-8.4305,,,0,
11219,Fala,Fala,Fala - travessa da Rua Esc. Nova,40.2017,-8.4676,,,0,
11220,Estacao Nova,Antonio Granjo,Esc. S. Bartolomeu - Pg. 1474,40.2095,-8.4319,,,0,
11221,Estacao Nova,Antonio Granjo,Estacao Nova - Pg. 1475,40.2092,-8.4322,,,0,
11222,Palacio da Justica,Palacio,Palacio - Pgs. 1470 e 1471,40.2147,-8.4328,,,0,
11223,Praca da Republica,Pr. Republica,Pr. Republica - Pgs. 1597 e 1598,40.2101,-8.4198,,,0,
11224,Arnado,Arnado,Arnado - Pg. 1480,40.2141,-8.4319,,,0,
11225,Portagem,Portagem,Portagem - Pgs. 1509 e 1510,40.2072,-8.4302,,,0,
11226,Beira Rio ,Beira Rio,Beira Rio - Pg. 1501,40.2073034,-8.430478,,,0,
11227,Jardim da Manga - PSP ,PSP ,PSP - Pgs. 1465 e 1467,40.2116,-8.4278,,,0,
11228,Barqueira,R. Barqueira,Barqueira- Rua da - Sent. Escola ,40.1956,-8.5026,,,0,
11229,Barqueira,R. Barqueira,Barqueira- Rua da - Sent. Taveiro,40.1962,-8.5031,,,0,
